,order_id,customer_id,date,nearest_warehouse,shopping_cart,order_price,delivery_charges,customer_lat,customer_long,coupon_discount,order_total,season,is_expedited_delivery,distance_to_nearest_warehouse,latest_customer_review,is_happy_customer
0,ORD044475,ID4336550012,2019-10-31,Thompson,"[('iStream', 1), ('iAssist Line', 1)]",2375.0,84.9,-37.798447700000004,144.9590122,10,2222.4,Spring,False,1.9003,just fine personal phone seems to be working just fine so far,1.0
1,ORD470983,ID0202772800,2019-10-01,Thompson,"[('iStream', 2), ('Toshika 750', 2), ('Alcon 10', 2)]",26840.0,71.91,-37.8052525,144.9260628,25,20201.91,Spring,False,2.0237,already dead! broke after 2 months!,0.0
2,ORD210360,ID0241807196,2019-12-09,Bakers,"[('pearTV', 2), ('Toshika 750', 1), ('Alcon 10', 1)]",25890.0,72.95,-37.8133109,144.98850359999997,10,23373.95,Summer,False,0.6973,"buy factory unlocked to many at&t apps,the processor is slower than i expected,i also expected more battery hours.a constant notifications alert most of the time.however,good screen size,sharp images and color.---in the future i would purchase a (factory unlocked) unit.",1.0
3,ORD161496,ID2312383360,2019-12-28,Bakers,"[('Alcon 10', 1), ('Universe Note', 2), ('iAssist Line', 1), ('iStream', 1)]",18225.0,76.34,-37.8087984,145.00884680000001,15,15567.59,Summer,False,1.2048,five stars love my phone..great price,1.0
4,ORD036735,ID1492410220,2019-06-13,Thompson,"[('iAssist Line', 1), ('Olivia x460', 1), ('Alcon 10', 1)]",12400.0,57.48,-37.8031011,144.9633841,15,10597.48,Winter,False,1.7873,"how bad is horrible? mine didn't work. it must have been a defective one. the screen cracks by itself, when left in the sun. the seller won't stand behind a plainly bad product.",0.0
5,ORD441479,ID0477079749,2019-11-09,Bakers,"[('iStream', 2), ('pearTV', 1), ('Universe Note', 2), ('Olivia x460', 2)]",15960.0,106.4,-37.8062074,144.9785247,0,16066.4,Spring,True,1.5287,will be on top! 1. call quality is amazingly clear. 2. camera is the best of its class. i love photography and this is the best camera phone. instagram please on window phone 8! 3. i was totally amazed by the screen. very clear! 4. the speakers produces great sounds. 5. it's xp!,1.0
6,ORD457110,ID1463620717,2019-08-06,Bakers,"[('iAssist Line', 2), ('Toshika 750', 2)]",13090.0,77.88,-37.8163859,145.00429319999995,5,12513.38,Winter,True,1.0681,"four stars works good like the wireless charging, loses battery charge faster then i like",1.0
7,ORD063394,ID0589472358,2019-12-29,Nickolson,"[('pearTV', 2), ('iAssist Line', 1), ('Alcon 10', 1), ('Universe Note', 1)]",27245.0,80.31,-37.8093223,144.9730396,0,27325.31,Summer,True,1.0768,was not as advertised. it was not compatible with sprint.,0.0
8,ORD330090,ID0579486160,2019-01-23,Thompson,"[('Lucent 330S', 1), ('Thunder line', 2)]",5590.0,90.8,-37.815112,144.94963230000005,25,4283.3,Summer,True,0.3529,it works well everything works great. great camera. weak speakers,1.0
9,ORD186933,ID6167441053,2019-08-01,Nickolson,"[('iAssist Line', 2), ('Universe Note', 1), ('Thunder line', 1), ('Lucent 330S', 2)]",12540.0,62.47,-37.8121351,144.96234119999997,10,11348.47,Winter,True,0.9587,really in 2018??? not working on verizon is ridiculous in 2018!!!!!!,0.0
10,ORD207429,ID0472236193,2019-12-14,Thompson,"[('iStream', 2), ('pearTV', 2), ('Universe Note', 2), ('Lucent 330S', 1)]",21050.0,105.62,-37.801094899999995,144.9669399,15,17998.12,Summer,True,1.0377551910585958,"very good product. very good, love it.",1.0
11,ORD234452,ID0547568822,2019-09-06,Bakers,"[('Candle Inferno', 1), ('Alcon 10', 2), ('Toshika 750', 1), ('Universe Note', 2)]",29550.0,75.35,-37.8129835,144.988359,5,28147.85,Spring,False,0.6899,a decent android phone dual sim unlocked makes it a good backup when traveling internationally. good value for the money. hard to get used to the android system. prefer alcon>,1.0
12,ORD351582,ID1463620910,2019-08-30,Bakers,"[('Olivia x460', 1), ('Alcon 10', 1), ('iStream', 2)]",10475.0,78.2,-37.8176225,145.005412,0,10553.2,Winter,True,1.2338,"its a great phone, but the battery just doesn't last as ... its a great phone, but the battery just doesn't last as long as it should. sometimes it will last for almost a day and sometimes not even an entire day. i like it but i would also like the batter to last longer.",1.0
13,ORD190604,ID0746912551,2019-05-20,Nickolson,"[('Toshika 750', 1), ('Candle Inferno', 2), ('Alcon 10', 1), ('pearTV', 2)]",26750.0,68.3,-37.82507920000001,144.9827779,10,24143.3,Autumn,False,1.3688,best android or 2019 10/10,1.0
14,ORD073738,ID1521014718,2019-08-30,Bakers,"[('Olivia x460', 1), ('pearTV', 2)]",13845.0,78.09,-37.7998614,144.9932054,15,11846.34,Winter,True,1.1422,five stars great phone. just as advertised!,1.0
15,ORD494550,ID2299500155,2019-06-10,Thompson,"[('Lucent 330S', 2), ('Candle Inferno', 1), ('Thunder line', 2), ('iAssist Line', 1)]",9475.0,69.58,-37.8051604,144.9602013,0,9544.58,Winter,False,1.4259,five stars i love my phone :),1.0
16,ORD226586,ID1492169362,2019-01-29,Thompson,"[('Olivia x460', 2), ('Universe Note', 2)]",9350.0,85.72,-37.7992761,144.9641615,25,7098.22,Summer,False,2.1175,amazing cellphone for the price very good for the price,1.0
17,ORD440266,ID1899732699,2019-07-07,Thompson,"[('Olivia x460', 2), ('Alcon 10', 2), ('pearTV', 1)]",26660.0,89.87,-37.79821,144.91648999999995,25,20084.87,Winter,True,3.1345,"nice device the only complaint is those regarding the wp7 system, but is a great phone for its price. i cannot erase the phone messages with one option i have to erase one by one these messages.",1.0
18,ORD226188,ID0846545709,2019-10-04,Nickolson,"[('Candle Inferno', 1), ('pearTV', 1), ('Thunder line', 2)]",11100.0,96.27,-37.8186271,144.9679277,10,10086.27,Spring,True,0.1428,"a great day-to-day phone. i love this phone: standard android, great hardware features, acceptable display. cheap. a perfect day-to-day phone that i don't fret about. if i lost it, it would not be the end of the world. this version, dual sim, larger display, is best.",1.0
19,ORD458556,ID1492410203,2019-11-29,Nickolson,"[('Universe Note', 1), ('Olivia x460', 1)]",4675.0,82.95,-37.8040912,144.9634073,5,4524.2,Spring,False,1.7025,no issues works great.,1.0
20,ORD316520,ID3394725167,2019-01-26,Thompson,"[('iStream', 2), ('Thunder line', 1)]",2480.0,76.82,-37.81848170000001,144.9566011,10,2308.82,Summer,False,1.0587,five stars it look very cool to me,1.0
21,ORD019914,ID0233314776,2019-05-18,Bakers,"[('Toshika 750', 2), ('Candle Inferno', 2), ('iStream', 2)]",9800.0,68.2,-37.804565999999994,144.9774159,25,7418.2,Autumn,False,1.6795,five stars in great condition. works properly and having fun with it already.,1.0
22,ORD095961,ID3114181724,2019-06-25,Nickolson,"[('Olivia x460', 1), ('iAssist Line', 2), ('Candle Inferno', 2), ('iStream', 2)]",6835.0,78.42,-37.8105079,144.9637216,15,5888.17,Winter,True,1.036,easy to install,1.0
23,ORD355165,ID0723967205,2019-02-24,Bakers,"[('pearTV', 1), ('iAssist Line', 2)]",10760.0,75.09,-37.80389260000001,145.0038247,15,9221.09,Summer,False,1.0162,five stars very happy. product was just as described.,1.0
24,ORD041515,ID5619579755,2019-08-27,Bakers,"[('Olivia x460', 1), ('Toshika 750', 2), ('Lucent 330S', 1), ('Candle Inferno', 2)]",11955.0,71.56,-37.8184346,145.01431159999996,25,9037.81,Winter,False,1.9229,i recommend it to others if camera is not an issue everything is perfect about the phone except for the camera make me look like my face was painted,1.0
25,ORD326666,ID0710001172,2019-12-24,Thompson,"[('Toshika 750', 2), ('Candle Inferno', 1), ('iStream', 2)]",9370.0,93.72,-37.8140479,144.93599430000003,15,8058.22,Summer,True,0.9859,"great camera and never crashes. phone works good in general, but after less that 4 or 5 weeks it has a big yellow spot on the screen.",1.0
26,ORD287569,ID0310944926,2019-07-01,Bakers,"[('pearTV', 2), ('Thunder line', 2), ('Universe Note', 1), ('Candle Inferno', 2)]",21290.0,78.86,-37.8038968,145.00363159999995,25,16046.36,Winter,True,1.0034,"that it works i love it for what i use it for, the battery last more then 2 days with light use",1.0
27,ORD192980,ID1327098169,2019-01-13,Nickolson,"[('Thunder line', 2), ('iAssist Line', 2), ('Lucent 330S', 2), ('iStream', 1)]",11420.0,71.92,-37.8144235,144.96561210000004,15,9778.92,Summer,False,0.5793,this thing is awesome. we watch it more then the regular cable. going to by more on black friday as christmas gifts.,1.0
28,ORD452116,ID0122754904,2019-06-19,Thompson,"[('Candle Inferno', 2), ('iStream', 1), ('iAssist Line', 2), ('Lucent 330S', 1)]",6690.0,61.49,-37.814260499999996,144.943144,10,6082.49,Winter,False,0.3878,"and it works great thus far i just bought it, and it works great thus far! i'm really happy with physical condition and seems to be a great deal.",1.0
29,ORD186109,ID0387153038,2019-03-24,Thompson,"[('Olivia x460', 2), ('Candle Inferno', 2), ('Thunder line', 1), ('iAssist Line', 2)]",9940.0,53.51,-37.798676,144.94880859999995,0,9993.51,Autumn,False,1.5656,claim hello informed that the package arrived and without the cell phone only the charger and the headphones,0.0
30,ORD406836,ID6167289287,2019-08-31,Nickolson,"[('iStream', 2), ('Toshika 750', 2), ('Candle Inferno', 2)]",9800.0,66.97,-37.8104156,144.9614858,15,8396.97,Winter,False,1.1542,"great phone great price for the price, this phone is emaculant. always been a olivia guy but google really has a nice product. being released in 2016, this phone still competes with new ones today.",1.0
31,ORD456396,ID0838386029,2019-11-04,Thompson,"[('iAssist Line', 2), ('Alcon 10', 1)]",13400.0,104.22,-37.8029575,144.9482791,5,12834.22,Spring,True,1.0867,five stars love it,1.0
32,ORD305500,ID2457712025,2019-02-21,Bakers,"[('Lucent 330S', 1), ('iStream', 1), ('iAssist Line', 2)]",5830.0,80.98,-37.803731899999995,144.9797286,0,5910.98,Summer,False,1.5315,five stars excellent item.,1.0
33,ORD009406,ID2069174451,2019-06-29,Bakers,"[('iStream', 1), ('iAssist Line', 2), ('pearTV', 2), ('Toshika 750', 1)]",21540.0,55.89,-37.8002284,144.9848519,25,16210.89,Winter,False,1.4198,"ehhh.... phone isn't green, it's black. and windows phones are terrible. half of the apps available on ios and android aren't available on windows. but it made calls and texts and emails, so it did what i needed until i could upgrade.",0.0
34,ORD276378,ID0777706221,2019-04-08,Thompson,"[('Lucent 330S', 1), ('Thunder line', 1), ('Candle Inferno', 2), ('Olivia x460', 1)]",5495.0,66.71,-37.805754,144.95436850000004,10,5012.21,Autumn,True,1.0027,"we had this phone for approx 45 days; would ... we had this phone for approx 45 days; would no longer charge. discovered that the charging port was broken (phone used by aged parent; not mistreated). bought in ""like new"" condition...no refund from this vendor. this was the fastest $119 i've ever lost on a product.",0.0
35,ORD234649,ID4315827366,2019-10-22,Bakers,"[('Thunder line', 2), ('Universe Note', 1), ('Olivia x460', 2)]",10260.0,74.57,-37.81219820000001,145.00032990000003,0,10334.57,Spring,False,0.511,"great phone ordered it on digico, got a european converter outlet with usb and works great in portugal with no issues. easy to activate.",1.0
36,ORD047830,ID0767661788,2019-06-03,Nickolson,"[('Alcon 10', 1), ('Toshika 750', 1), ('iAssist Line', 1), ('Candle Inferno', 2)]",16355.0,65.58,-37.80819620000001,144.97330580000005,10,14785.08,Winter,False,1.2037,perfect,1.0
37,ORD366573,ID0196907921,2019-04-09,Nickolson,"[('Universe Note', 1), ('pearTV', 1), ('Toshika 750', 2), ('Alcon 10', 1)]",27350.0,66.37,-37.8275691,144.9581941,15,23313.87,Autumn,True,1.4125,not like the first one i purchased in 2016 do not buy cheap,0.0
38,ORD103506,ID4380043473,2019-03-16,Bakers,"[('Lucent 330S', 2), ('Alcon 10', 1)]",11410.0,66.58,-37.822972,144.9889144,5,10906.08,Autumn,True,1.5476,phone has a cracked screen the phone has a cracked screen. not sure if it happened during shipment or what either way i have cracked screen.,0.0
39,ORD143630,ID0377544503,2019-06-14,Thompson,"[('pearTV', 1), ('iAssist Line', 1), ('Toshika 750', 1)]",12855.0,72.54,-37.81548170000001,144.94546119999995,0,12927.54,Winter,True,0.3431,we love our thunder spots. we now have three through the house and like that you can drop in on the other spots. we do wish the clock faces had more customization options and that there were more faces in general.,1.0
40,ORD104117,ID1725216871,2019-07-12,Nickolson,"[('Candle Inferno', 1), ('Olivia x460', 1), ('Toshika 750', 1), ('Universe Note', 2)]",12875.0,79.36,-37.8067646,144.9644611,0,12954.36,Winter,True,1.3909,"cool phone very fast good camera good hd video best phone i have ever had, camera works good, does not bomb out and require rebooting, display is really clear, battery last at least one full day",1.0
41,ORD195327,ID6197211587,2019-07-01,Thompson,"[('Toshika 750', 1), ('Thunder line', 2)]",8680.0,81.01,-37.8149572,144.9327763,0,8761.01,Winter,True,1.2824,picked this tablet up on black friday. what a great deal. works awesome and has all of the digico apps.,1.0
42,ORD112161,ID6167254955,2019-04-01,Nickolson,"[('Olivia x460', 1), ('pearTV', 1), ('Alcon 10', 2)]",25435.0,46.36,-37.81663320000001,144.97003569999995,10,22937.86,Autumn,False,0.2225,glitchy and slow this was the worst phone that i have ever bought. its extremely slow when opening apps or multi tasking. and from day one out the box i had trouble with the touchscreen. i mean i don't expect the quality of the flagship phones but the quality of this phone should put it in the 100 dollar range.,0.0
43,ORD025089,ID0361227898,2019-04-22,Bakers,"[('Toshika 750', 2), ('Universe Note', 1), ('Alcon 10', 2)]",29990.0,70.95,-37.8018159,144.9763155,5,28561.45,Autumn,False,1.8966,three stars its excellent no concerns as at the moment.,1.0
44,ORD066898,ID2886390252,2019-07-01,Thompson,"[('iStream', 1), ('Alcon 10', 1), ('Thunder line', 2), ('pearTV', 1)]",19770.0,48.43,-37.81400429999999,144.94429240000005,0,19818.43,Winter,False,0.2856,disappointed the phone was beat up and scratched poor condition,0.0
45,ORD427031,ID1463547087,2019-08-04,Nickolson,"[('Toshika 750', 1), ('Alcon 10', 1)]",13270.0,51.25,-37.818549299999994,145.0032351,10,11994.25,Winter,False,0.9801998845180468,it broke so quick. you get what you pay for honestly.,0.0
46,ORD371849,ID0591435396,2019-06-19,Nickolson,"[('pearTV', 2), ('iAssist Line', 1), ('Olivia x460', 1), ('iStream', 2)]",16370.0,59.92,-37.818017499999996,144.96944430000005,25,12337.42,Winter,False,0.065,it arrived on time phone is so far so good. battery life is great,1.0
47,ORD271882,ID1833123396,2019-05-25,Thompson,"[('iStream', 2), ('Universe Note', 1), ('Thunder line', 2)]",8110.0,79.59,-37.8035927,144.954148,10,7378.59,Autumn,True,1.1872,"works as expected. works great, no problem to transfer and activate.",1.0
48,ORD382965,ID0294624741,2019-08-08,Nickolson,"[('Thunder line', 2), ('Universe Note', 2), ('Alcon 10', 2), ('Toshika 750', 2)]",37800.0,49.67,-37.819525399999996,144.9624772,10,34069.67,Winter,False,0.6306,face id don‚Äôt work i bought one of these phones currently using it rite now and the face id does not work i shipped it to my mother in the us then and she brought it to jamaica to me so it was hard for me to send it back.....all i‚Äôm saying is test ur products properly b4 selling them,0.0
49,ORD338443,ID1479897585,2019-02-24,Nickolson,"[('Universe Note', 1), ('Candle Inferno', 1)]",3880.0,74.27,-37.8202395,144.9576732,5,3760.27,Summer,False,1.0604,it was easy to set up and affordable! love it!,1.0
50,ORD273053,ID0846591613,2019-08-12,Nickolson,"[('Candle Inferno', 2), ('Olivia x460', 2)]",3310.0,74.85,-37.8221518,144.96924919999995,5,3219.35,Winter,True,0.3968,"all good about the cell phone very good product. they added protection on the screen, thanks!",1.0
51,ORD403896,ID0131214954,2019-03-15,Nickolson,"[('Olivia x460', 1), ('Lucent 330S', 1), ('iStream', 2), ('Toshika 750', 1)]",7075.0,80.04,-37.8137832,144.9608233,15,6093.79,Autumn,True,0.9359,it perfect! the cell is a darker blue i love it! it's a smaller version of the olivia 8 and i can't wait to start using it!,1.0
52,ORD259297,ID3394730435,2019-07-05,Thompson,"[('Lucent 330S', 2), ('iAssist Line', 1), ('Toshika 750', 1), ('Candle Inferno', 2)]",9865.0,61.21,-37.810438500000004,144.94935669999995,15,8446.46,Winter,False,0.3199,five stars would recommend this seller. item was perfect and as described.,1.0
53,ORD465334,ID3775019753,2019-09-24,Bakers,"[('Candle Inferno', 2), ('Olivia x460', 2)]",3310.0,103.88,-37.808276299999996,144.9835336,5,3248.38,Spring,True,1.0465,mobile phone is good the phone is very goodÔºåi like it!,1.0
54,ORD028290,ID0259617268,2019-05-27,Thompson,"[('Toshika 750', 2), ('iAssist Line', 1)]",10865.0,66.35,-37.8054791,144.9487798,25,8215.1,Autumn,False,0.8148,phone was like new! the refurbished phone i received was brand new! it still had the protective plastic all over it. phone was much better than described!!,1.0
55,ORD278736,ID6200184386,2019-10-11,Thompson,"[('Universe Note', 2), ('Alcon 10', 2), ('Lucent 330S', 2), ('Candle Inferno', 1)]",27690.0,103.72,-37.8205549,144.9532181,15,23640.22,Spring,True,1.0306,"great! the phone came in great condition, as far as i can see. i've been using the phone for about a month now and it's so far so good. holds an awesome charge, finger print reader is fine, the speaker quality is good and the camera is great. all are in good condition.",1.0
56,ORD359470,ID0962965882,2019-03-02,Thompson,"[('Olivia x460', 1), ('iAssist Line', 1), ('Toshika 750', 1), ('Universe Note', 2)]",14670.0,84.27,-37.7966811,144.95116480000004,5,14020.77,Autumn,True,1.8163,great phone and price this is the 3rd time i have purchased a refurbished phone from this vendor. get a great phone for a great price,1.0
57,ORD479610,ID4294474620,2019-10-26,Nickolson,"[('Alcon 10', 2), ('Toshika 750', 2)]",26540.0,82.19,-37.805352,144.97365259999995,25,19987.19,Spring,False,1.5177,an amazing device!! an amazing device!,1.0
58,ORD087945,ID0253027669,2019-04-26,Thompson,"[('Universe Note', 2), ('Candle Inferno', 2)]",7760.0,64.61,-37.8154174,144.94132199999999,15,6660.61,Autumn,False,0.5905,worth the buy! quality is amazing!,1.0
59,ORD062325,ID0571731182,2019-05-17,Thompson,"[('Candle Inferno', 1), ('Lucent 330S', 2), ('Toshika 750', 2), ('Thunder line', 1)]",13710.0,67.93,-37.8242743,144.94398,10,12406.93,Autumn,False,1.3197,five stars all good.,1.0
60,ORD495103,ID6167231030,2019-02-21,Thompson,"[('Olivia x460', 1), ('iStream', 1), ('Universe Note', 1)]",4825.0,95.48,-37.8134857,144.9585706,25,3714.23,Summer,True,1.0155,love the olivia universe s5 i received this phone in perfect condition. the only thing i didn't care for was the type of charger that came with it. i would buy another one if the price was lower since these phones are older now.,1.0
61,ORD260147,ID1889677160,2019-05-26,Bakers,"[('Olivia x460', 2), ('Universe Note', 2)]",9350.0,71.49,-37.83149,145.00616000000005,10,8486.49,Autumn,False,2.5784,excellent phone! great phone for my 13 year old son!,1.0
62,ORD384604,ID0767584651,2019-09-25,Nickolson,"[('Alcon 10', 2), ('Thunder line', 2), ('pearTV', 1), ('Lucent 330S', 1)]",29800.0,104.37,-37.807606400000004,144.9708938,10,26924.37,Spring,True,1.2289,works great sounds great does not miss a beat wish it had a battery for better portability,1.0
63,ORD360633,ID6197211471,2019-03-02,Thompson,"[('Olivia x460', 2), ('Thunder line', 2), ('pearTV', 1)]",13120.0,66.62,-37.81304650000001,144.9335818,5,12530.62,Autumn,False,1.1868,great buy. would buy again. phone came earlier than expected. looks brand new eventing works great and came with all accessories and fast charging wall adapter.,1.0
64,ORD327926,ID6131956024,2019-11-01,Nickolson,"[('Alcon 10', 2), ('Olivia x460', 1)]",19125.0,104.34,-37.8238593,144.9818731,5,18273.09,Spring,True,1.2318,"like new i bought an pear alcon xs, 512gb, gray - fully unlocked (renewed). works and looks like new. no scratches or scuffs.",1.0
65,ORD246371,ID0571731212,2019-10-02,Thompson,"[('iAssist Line', 1), ('Olivia x460', 1)]",3450.0,105.99,-37.824337899999996,144.9445459,15,3038.49,Spring,True,1.3173,"battery dies a little too fast but overall it's good for the price just what i needed,battery dies a little too fast but overall it's good for the price.",1.0
66,ORD286551,ID2383211239,2019-06-27,Nickolson,"[('Toshika 750', 2), ('iStream', 1)]",8790.0,62.06,-37.8173557,144.96755149999996,0,8852.06,Winter,False,1.0733435108970732,"i have been very happy with this phone, and it's pink! for not being the most expensive phone ever i have been very happy with this phone, and it's pink! which makes me super happy.",1.0
67,ORD434213,ID6097143762,2019-12-10,Bakers,"[('iStream', 1), ('Lucent 330S', 2), ('Toshika 750', 1)]",6930.0,94.61,-37.802974299999995,145.0039623,0,7024.61,Summer,True,1.0957,we like it. very convenient,1.0
68,ORD034820,ID3215106468,2019-03-20,Thompson,"[('Toshika 750', 1), ('Thunder line', 1), ('Universe Note', 1)]",9950.0,76.39,-37.809872999999996,144.94906619999998,10,9031.39,Autumn,True,0.3578,trust this seller.. avrived fast on as spec'd i wanted the dual sims card slot that is not sold in the us and understand the limited warranty as a result.. the phone came and works solid.. side note this of a tmoblie account and will not work with some of the others.,1.0
69,ORD167354,ID1838361811,2019-06-01,Nickolson,"[('iStream', 2), ('pearTV', 2)]",12920.0,75.08,-37.8125294,144.96515349999999,10,11703.08,Winter,True,0.7781,"everything went great getting my phone everything went great getting my phone. it said gsm unlocked, but it was inf act an att phone. everything worked out great though!",1.0
70,ORD106246,ID0711331332,2019-07-02,Thompson,"[('pearTV', 1), ('Universe Note', 2), ('Candle Inferno', 2), ('Toshika 750', 1)]",18390.0,79.17,-37.80659489999999,144.95703669999997,25,13871.67,Winter,True,1.1074,four stars good,1.0
71,ORD344544,ID6167417928,2019-12-08,Thompson,"[('Lucent 330S', 2), ('Alcon 10', 2), ('Thunder line', 1), ('iAssist Line', 1)]",24765.0,95.56,-37.8155614,144.95816340000005,25,18669.31,Summer,True,1.0273,"three stars it works fine, except often i get a warning about the sm card. the battery drains pretty quickly too.",1.0
72,ORD155920,ID0253027681,2019-06-08,Thompson,"[('Olivia x460', 2), ('iAssist Line', 1)]",4675.0,63.29,-37.8163438,144.94261980000005,0,4738.29,Winter,False,0.5657,four stars perfet very good phone,1.0
73,ORD091806,ID6202514700,2019-11-28,Nickolson,"[('Candle Inferno', 2), ('Thunder line', 2), ('Toshika 750', 1)]",9540.0,59.64,-37.8213638,144.9628387,0,9599.64,Spring,False,0.6659,first good phone i've owned. this is the first phone i've had that didn't annoy me with its sluggishness. battery lasts a long time. update: the phone is now broken for no reason other than what i assume is planned obsolescence. olivia hasn't responded to my request for service.,0.0
74,ORD002921,ID4520380527,2019-10-25,Thompson,"[('Alcon 10', 2), ('Universe Note', 2), ('Candle Inferno', 1), ('Lucent 330S', 2)]",27690.0,76.09,-37.8146754,144.9577519,25,20843.59,Spring,False,1.0061573746813937,this is a great digico inferno hd8. i love the size. so much better than my first candle.,1.0
75,ORD276551,ID0332544910,2019-08-22,Thompson,"[('pearTV', 1), ('Candle Inferno', 2), ('Thunder line', 1), ('Olivia x460', 1)]",10575.0,62.09,-37.8099503,144.95043619999996,10,9579.59,Winter,False,0.4238,good phone good price like the price and performance,1.0
76,ORD433169,ID3218293551,2019-01-03,Thompson,"[('Olivia x460', 1), ('Alcon 10', 1), ('Toshika 750', 2)]",18815.0,96.55,-37.804659,144.95343119999995,5,17970.8,Summer,True,1.0531,"i liked the sound . what is troubling is that i paid extra money to have access to a million more songs. sometimes it doesn't work. ex. iassist play italian songs&#34; .don't have or don&#34; t understand. or play the opera tosca, response &#34;sorry i don&#34;t have that.",1.0
77,ORD022825,ID0224765801,2019-08-22,Bakers,"[('Universe Note', 1), ('iAssist Line', 2), ('iStream', 2), ('Alcon 10', 2)]",26100.0,75.15,-37.8104033,144.9990862,15,22260.15,Winter,True,0.342,love my phone i love my phone. i think my only complaint is that the battery dies quickly. other than that it works great!,1.0
78,ORD037630,ID2776664750,2019-01-13,Thompson,"[('Thunder line', 2), ('iAssist Line', 2)]",8810.0,86.01,-37.826402,144.951862,25,6693.51,Summer,True,1.5853,not much features.,0.0
79,ORD157729,ID0026034540,2019-05-05,Thompson,"[('Alcon 10', 1), ('Toshika 750', 2), ('iAssist Line', 2)]",22040.0,65.15,-37.8173782,144.95609,15,18799.15,Autumn,False,0.9506,five stars great phone so far,1.0
80,ORD016094,ID4110787847,2019-02-19,Bakers,"[('pearTV', 2), ('Universe Note', 1), ('Thunder line', 2), ('iAssist Line', 1)]",22655.0,66.65,-37.8101503,144.9965522,10,20456.15,Summer,False,0.1174,five stars extremely happy with phone.. it's fast and that was my goal..,1.0
81,ORD034602,ID4698484073,2019-12-06,Bakers,"[('Olivia x460', 1), ('Candle Inferno', 1)]",1655.0,74.1,-37.802619,145.00180790000005,25,1315.35,Summer,False,1.0044,just fantastic what a deal. quality all around with great features. i'm not going to repeat all the positives found in the other reviews. they are correct!,1.0
82,ORD177047,ID0385165533,2019-06-23,Bakers,"[('iStream', 2), ('Universe Note', 1), ('Thunder line', 2), ('Olivia x460', 1)]",9335.0,81.35,-37.8006624,144.98234519999997,25,7082.6,Winter,True,1.5376,renewed phone 6 month warranty great price,1.0
83,ORD076275,ID2318307718,2019-09-14,Nickolson,"[('pearTV', 1), ('Thunder line', 2), ('iStream', 2), ('iAssist Line', 1)]",13195.0,77.31,-37.8108058,144.9767273,0,13272.31,Spring,False,1.0724,"five stars arrived before was expected, new and work perfectly with tmobile.",1.0
84,ORD098809,ID0711331500,2019-06-14,Thompson,"[('Universe Note', 2), ('Candle Inferno', 2), ('Alcon 10', 2), ('pearTV', 1)]",31970.0,66.45,-37.80713660000001,144.9565054,15,27240.95,Winter,False,1.0733435108970732,for what it does it's great for me a good alternative,1.0
85,ORD364355,ID0579383947,2019-10-11,Bakers,"[('Toshika 750', 1), ('iAssist Line', 1), ('Universe Note', 2), ('pearTV', 1)]",19755.0,78.32,-37.798441,144.99458909999996,10,17857.82,Spring,False,1.2875,four stars it is good and cheap.,1.0
86,ORD445703,ID0283255046,2019-11-04,Bakers,"[('Toshika 750', 2), ('Alcon 10', 2), ('pearTV', 1), ('Universe Note', 2)]",39750.0,79.54,-37.8089249,145.0088358,15,33867.04,Spring,False,1.2023,five stars work perfect,1.0
87,ORD296789,ID0581759708,2019-01-30,Thompson,"[('Universe Note', 1), ('Lucent 330S', 2), ('Alcon 10', 1)]",14860.0,83.18,-37.803945899999995,144.93133730000002,10,13457.18,Summer,False,1.6906,"it was better. the phone works perfectly. after the update, it was better.",1.0
88,ORD373211,ID6167440992,2019-03-01,Nickolson,"[('Olivia x460', 2), ('Thunder line', 2), ('pearTV', 2)]",19430.0,80.81,-37.8123619,144.9621441,5,18539.31,Autumn,True,0.9517,it was time for a up grade great phone great price and best of all it was unlocked üòÅ,1.0
89,ORD311787,ID0711358620,2019-12-12,Bakers,"[('Alcon 10', 2), ('Universe Note', 1)]",21350.0,98.47,-37.807320000000004,144.9582249,5,20380.97,Summer,True,1.0377551910585958,so far i love it. the only thing that was missing was ... so far i love it. the only thing that was missing was the instruction manual. i've kind of had to figure out how things work on my own,1.0
90,ORD436603,ID0702373594,2019-05-26,Thompson,"[('Candle Inferno', 2), ('Alcon 10', 2), ('Thunder line', 2)]",23120.0,65.51,-37.8066464,144.9416534,10,20873.51,Autumn,False,0.8228,"i bought this to replace my wife's (1st generation) candle inferno. she likes it even better than the old one, especially the pinsharp screen.",1.0
91,ORD006446,ID1479905401,2019-07-06,Nickolson,"[('Toshika 750', 2), ('Alcon 10', 1), ('iAssist Line', 1)]",19815.0,66.43,-37.8206097,144.95685469999995,15,16909.18,Winter,False,1.1387,review honest the phone was exactly what was advertised. i recommend the phone for anyone looking for a sturdy phone. i recommend the buy for anyone based on my one experience.,1.0
92,ORD446916,ID1668523518,2019-06-13,Nickolson,"[('iStream', 1), ('Lucent 330S', 2), ('Universe Note', 2), ('Candle Inferno', 2)]",10370.0,65.8,-37.824097200000004,144.9486132,5,9917.3,Winter,False,1.0733435108970732,"five stars perfect phone, that's what i expected!",1.0
93,ORD019883,ID4516260664,2019-06-15,Thompson,"[('Olivia x460', 1), ('Candle Inferno', 2), ('Lucent 330S', 1), ('pearTV', 2)]",15935.0,48.13,-37.8087321,144.9473669,5,15186.38,Winter,False,0.9801998845180468,one star within a week it was broken. not worth your money or your time.,0.0
94,ORD247620,ID4787373723,2019-02-04,Nickolson,"[('Alcon 10', 1), ('Universe Note', 2), ('Lucent 330S', 1), ('Candle Inferno', 2)]",17940.0,74.46,-37.8152518,144.9663639,15,15323.46,Summer,True,0.4659,two stars came with a wrong charger for europe version,0.0
95,ORD178450,ID2358053047,2019-05-26,Bakers,"[('Toshika 750', 1), ('Candle Inferno', 1), ('iStream', 1)]",4900.0,63.8,-37.81211070000001,144.9886884,25,3738.8,Autumn,False,0.6218,love this phone i am very happy with the phone. it came just like it would if it was new. the only things missing were the adapter and the dongle that normally come with it. the phone looks brand new and works amazing. i have had no issues with the performance of the phone. i love this phone.,1.0
96,ORD445342,ID0560997287,2019-07-22,Thompson,"[('iAssist Line', 1), ('pearTV', 2)]",14845.0,77.36,-37.81042,144.93598569999997,0,14922.36,Winter,True,1.0065,four stars it's not bad for 80,1.0
97,ORD027374,ID0571731122,2019-07-12,Thompson,"[('Universe Note', 1), ('Thunder line', 2), ('iAssist Line', 1)]",10035.0,80.45,-37.824530700000004,144.9434495,0,10115.45,Winter,True,1.3578,good cery nice,1.0
98,ORD199997,ID0844489496,2019-11-30,Thompson,"[('Thunder line', 2), ('iStream', 2), ('Candle Inferno', 2), ('iAssist Line', 1)]",7745.0,102.64,-37.8209271,144.94757380000001,5,7460.39,Spring,True,0.9199,five stars my sisters loved this phone. bought 2,1.0
99,ORD149996,ID4694397703,2019-11-07,Bakers,"[('Universe Note', 2), ('pearTV', 2)]",19520.0,101.57,-37.8059784,144.9872632,10,17669.57,Spring,True,0.8314,perfection im not going to say anything about windows phone because you should already know but the hardware on this phone is beautiful i did not expect it to look this good. the camera is nice nothing amazing but not bad and the screen looks beautiful,1.0
100,ORD214625,ID6167441025,2019-11-07,Thompson,"[('Toshika 750', 1), ('Olivia x460', 2), ('Alcon 10', 2), ('Thunder line', 1)]",26850.0,80.67,-37.809172600000004,144.96081569999996,25,20218.17,Spring,False,1.2702,k nice,1.0
101,ORD028595,ID0312718297,2019-04-08,Thompson,"[('pearTV', 2), ('iAssist Line', 2), ('Thunder line', 2), ('Lucent 330S', 2)]",23890.0,81.69,-37.8044544,144.9596573,5,22777.19,Autumn,True,1.4362,best phone i have owned phone came in timely manner. works great.,1.0
102,ORD054304,ID0267317935,2019-03-17,Nickolson,"[('iAssist Line', 2), ('pearTV', 1)]",10760.0,65.74,-37.8226066,144.9579795,15,9211.74,Autumn,False,1.1112,impressed customer! very impressed! 5 stars! phone is awesome. exactly as desrcibed. came in perfect condition. fantastic service!. will definitely be a return customer!,1.0
103,ORD119403,ID0092149934,2019-12-12,Nickolson,"[('Olivia x460', 2), ('Thunder line', 1), ('iStream', 2)]",4930.0,62.6,-37.8226595,144.95551730000003,5,4746.1,Summer,False,1.3144,ok not what i exspected phone doesn't have much storage dpace i like the stylr of the phone but browser always seems yo stop unexspectedly. sigh,0.0
104,ORD159960,ID0581764017,2019-06-24,Thompson,"[('iAssist Line', 1), ('Lucent 330S', 1), ('Candle Inferno', 1)]",3885.0,80.15,-37.804764899999995,144.93267980000005,0,3965.15,Winter,True,1.5416,"great phone. its fast and is the full package ... great phone. its fast and is the full package as a smartphone. what extremely irked me, was the dastardly slow and useless service this phone seemed to receieve. and if that wasnt enough the head phone jack ceased to work after a single month.",1.0
105,ORD092894,ID0595594348,2019-06-05,Nickolson,"[('iAssist Line', 2), ('Universe Note', 1), ('Alcon 10', 2)]",25800.0,60.85,-37.8101896,144.96958859999995,0,25860.85,Winter,True,0.9357,"bad imei # phone was locked by t-mobile due to previous owner skipping out on the bill, no one can activate phone. its as good as stolen. very unhappy",0.0
106,ORD091637,ID0034160613,2019-04-30,Nickolson,"[('Alcon 10', 1), ('iStream', 2), ('iAssist Line', 2)]",13700.0,83.37,-37.8031755,144.9694427,10,12413.37,Autumn,True,1.7165,"i rate it : b+ the only problem with this phone is i had to switch to a game carrier .... and now my quality of service is not so great ...but i enjoy the phone and it's deep blue color, the best thing about this phone is it's camera",1.0
107,ORD480546,ID0356090889,2019-06-25,Bakers,"[('Candle Inferno', 1), ('pearTV', 2), ('Thunder line', 1)]",15230.0,65.54,-37.81820250000001,144.9958573,5,14534.04,Winter,False,0.9152,"great phone for the money! powerhouse of a phone for the money. great performance, responsive, great battery, no bloatware. highly recommend if on a budget, but want a great phone.",1.0
108,ORD243569,ID3109398488,2019-07-10,Nickolson,"[('pearTV', 1), ('Thunder line', 1), ('Toshika 750', 2), ('Universe Note', 2)]",24030.0,82.22,-37.8045099,144.97460159999997,15,20507.72,Winter,True,1.6296,"this tablet is great, and it has a good battery life. i'd recommend for people who love to read.",1.0
109,ORD461956,ID0128882530,2019-09-05,Bakers,"[('Universe Note', 1), ('Toshika 750', 2)]",12090.0,102.1,-37.803041799999995,144.99806,15,10378.6,Spring,True,0.8131,"affordable price and very good specs got it for my wife, not expensive , good specs (camera , processor, etc) she‚Äôs really enjoying it",1.0
110,ORD210334,ID2941596454,2019-11-11,Nickolson,"[('Candle Inferno', 2), ('iStream', 2), ('Alcon 10', 2)]",19060.0,84.47,-37.8196969,144.97441750000004,15,16285.47,Spring,True,0.4452,one star doesn't work as expected or said to work,0.0
111,ORD325817,ID4655129061,2019-10-11,Thompson,"[('Lucent 330S', 2), ('Alcon 10', 2), ('iAssist Line', 1)]",22585.0,99.24,-37.8094365,144.9473781,10,20425.74,Spring,True,0.3613,"internet doesn't work when wi-fi off for straight talk was not a lte/cdma, can'tm use internet",1.0
112,ORD392963,ID3212411892,2019-10-20,Thompson,"[('Candle Inferno', 2), ('iStream', 2)]",1160.0,62.45,-37.8066915,144.9452774,10,1106.45,Spring,False,0.6843,one star not as should be,0.0
113,ORD086632,ID3185718970,2019-05-02,Bakers,"[('Olivia x460', 2), ('iAssist Line', 2), ('Universe Note', 2), ('iStream', 2)]",14100.0,68.82,-37.7990342,144.98792419999995,0,14168.82,Autumn,False,1.3792,"so far so good i've only had the phone a short time, but so far everything has been fabulous! ask me in 3 years and i'll tell you how it is then.",1.0
114,ORD327235,ID2021108591,2019-06-22,Thompson,"[('Universe Note', 1), ('Lucent 330S', 2), ('Thunder line', 1), ('Candle Inferno', 1)]",8520.0,67.28,-37.8095146,144.9579733,5,8161.28,Winter,False,1.0214,hermoso el equipo es perfecto,1.0
115,ORD371654,ID0282852919,2019-11-25,Bakers,"[('Universe Note', 2), ('Candle Inferno', 2)]",7760.0,68.57,-37.7990119,145.00639650000005,0,7828.57,Spring,False,1.5682,"got a dud maybe? when buying refurbished you always have the risk of the product not being perfect, which is what happened with this phone. phone would go into an endless restarting loop when the battery reached 20 percent. refund process was a breeze though!",0.0
116,ORD431427,ID4716795574,2019-05-16,Thompson,"[('Toshika 750', 2), ('iAssist Line', 1), ('Candle Inferno', 2), ('Alcon 10', 2)]",29625.0,52.28,-37.8192205,144.95298469999997,15,25233.53,Autumn,False,0.8954,phone was defective. would not let log on for ... phone was defective. would not let log on for data or internet. phone tech could not activate it.,0.0
117,ORD234457,ID2279153648,2019-11-19,Nickolson,"[('Candle Inferno', 1), ('iStream', 1), ('Universe Note', 1), ('pearTV', 2)]",16650.0,76.68,-37.8121677,144.974434,5,15894.18,Spring,False,0.8344,i fonally upgraded to a great phone i love my new phone!!!,1.0
118,ORD480732,ID0060653725,2019-02-25,Thompson,"[('Alcon 10', 2), ('iAssist Line', 2), ('pearTV', 1), ('iStream', 1)]",28810.0,54.49,-37.812870399999994,144.9429994,25,21661.99,Summer,False,0.3586,isn't unlock phone the phone is the wrong thing .it was not unlock is still locked .,0.0
119,ORD095307,ID0711331374,2019-11-23,Thompson,"[('iStream', 2), ('Universe Note', 2), ('Candle Inferno', 2)]",8060.0,103.59,-37.807171999999994,144.9570636,25,6148.59,Spring,True,1.0713,great product!,1.0
120,ORD285936,ID0575434506,2019-07-08,Nickolson,"[('Candle Inferno', 2), ('Toshika 750', 1), ('iStream', 1)]",5330.0,79.65,-37.8191261,144.98168710000004,0,5409.65,Winter,True,1.0688,this is a great phone at a great price this phone works just as advertised it made me a believer in android,1.0
121,ORD326762,ID0728165671,2019-06-30,Bakers,"[('Olivia x460', 2), ('iAssist Line', 2), ('Alcon 10', 1), ('Lucent 330S', 1)]",17080.0,80.13,-37.8127565,145.0102815,10,15452.13,Winter,True,1.3587,great great value for money,1.0
122,ORD090974,ID0633912918,2019-04-25,Thompson,"[('Thunder line', 2), ('Alcon 10', 2)]",22260.0,80.66,-37.815684999999995,144.95763380000002,10,20114.66,Autumn,True,0.9877,ok perfect,1.0
123,ORD358910,ID0591407871,2019-01-22,Nickolson,"[('iAssist Line', 2), ('Candle Inferno', 1)]",4880.0,95.34,-37.8233216,144.960685,25,3755.34,Summer,True,0.9405,"four stars the audio quality is poor, the sound is just really low, but it is a really great phone..",1.0
124,ORD316673,ID6167441072,2019-03-31,Nickolson,"[('Universe Note', 2), ('Toshika 750', 2), ('Lucent 330S', 1)]",16770.0,79.89,-37.81617070000001,144.9641899,10,15172.89,Autumn,True,0.5432,great product for the price arrived on time.. great product for the price!,1.0
125,ORD270129,ID0580186868,2019-01-24,Nickolson,"[('Thunder line', 2), ('Olivia x460', 1)]",5585.0,106.86,-37.800275,144.92935590000005,5,5412.61,Summer,True,1.0377551910585958,best phone that i've owned i bought mine from google it's the best phone i've used. i got one out of curiosity of what google could put out. it's camera is mainly the reason why i got it. haven't had any problems yet after a year of owning it,1.0
126,ORD082114,ID0250933656,2019-06-17,Bakers,"[('pearTV', 1), ('iStream', 2)]",6610.0,81.85,-37.8252603,145.0004236,5,6361.35,Winter,True,1.7594,mejor celular me encanta es un super celular,1.0
127,ORD243599,ID0588197213,2019-06-11,Nickolson,"[('iStream', 1), ('Alcon 10', 1)]",9100.0,73.47,-37.8121209,144.9739529,10,8263.47,Winter,True,0.8181,easy to use and please send me a $50 gift certificate for filling out this survey or cash works too.,1.0
128,ORD342193,ID0579999037,2019-03-26,Thompson,"[('pearTV', 1), ('iAssist Line', 2)]",10760.0,67.05,-37.806306299999996,144.9366014,15,9213.05,Autumn,False,1.1618,nice product the phone was as describe. great used condition and included the charger. the phone works perfectly and seems to have been very lightly used,1.0
129,ORD426561,ID2835280017,2019-01-25,Thompson,"[('iAssist Line', 2), ('Olivia x460', 1), ('Universe Note', 2)]",12575.0,80.21,-37.7995568,144.9553376,10,11397.71,Summer,False,1.6312,great phone for great price! fast delivery by technomaster!,1.0
130,ORD324346,ID0702352304,2019-10-05,Thompson,"[('Candle Inferno', 1), ('Thunder line', 2)]",4790.0,101.67,-37.8054326,144.94133269999998,5,4652.17,Spring,True,0.9509,best phone i've owned awesome phone love it. very fast and great camera quality.,1.0
131,ORD127422,ID0777906400,2019-11-09,Thompson,"[('Universe Note', 2), ('Candle Inferno', 2)]",7760.0,107.46,-37.8011152,144.95660969999997,15,6703.46,Spring,True,1.5361,"a decent phone for the price not as cheap as i thought it would be, most phones can be really low grade, even for this price, but i wasn't disappointed when i read the stats and used it myself.",1.0
132,ORD270148,ID3148693049,2019-08-18,Nickolson,"[('pearTV', 2), ('iAssist Line', 2), ('Olivia x460', 2)]",19520.0,64.17,-37.8129024,144.9723661,5,18608.17,Winter,False,0.6803,five stars fast service and a great phone!,1.0
133,ORD409057,ID0233314797,2019-03-24,Nickolson,"[('Olivia x460', 1), ('Alcon 10', 1)]",10175.0,67.53,-37.8043872,144.97634319999997,10,9225.03,Autumn,False,1.6906,"great christmas gift got this as a gift for my parents who seem to never want to upgrade their old phones, but they love taking pictures.. great gift with a great camera.",1.0
134,ORD090938,ID2189497232,2019-11-06,Nickolson,"[('pearTV', 2), ('Thunder line', 2), ('Alcon 10', 1), ('Olivia x460', 1)]",27155.0,77.46,-37.811262899999996,144.97310259999998,0,27232.46,Spring,False,0.8739,excellent the phone is very smooth and the photo is very good.,1.0
135,ORD467498,ID2183273512,2019-10-12,Nickolson,"[('Universe Note', 1), ('Olivia x460', 2), ('Candle Inferno', 2), ('Alcon 10', 1)]",15710.0,67.6,-37.8074794,144.96295590000003,0,15777.6,Spring,False,1.3665,poor quality the phone can not work very well. battery runs out so fast. i need to charge it everyday even i didn't make any calls and receive any calls. my friends always complain a lot of noises. i need to switch to other verizon phone to be able hear well.,0.0
136,ORD293986,ID3215192055,2019-11-04,Thompson,"[('Thunder line', 2), ('pearTV', 1), ('iStream', 2), ('Toshika 750', 1)]",15290.0,72.62,-37.810438,144.947132,5,14598.12,Spring,False,0.2489,phone well worth the price and included a free $10 minutes card. has all the functions i need and use. economical.,1.0
137,ORD179884,ID0130015100,2019-06-24,Nickolson,"[('iStream', 2), ('Toshika 750', 2), ('iAssist Line', 2)]",13390.0,74.45,-37.8156101,144.96779519999996,10,12125.45,Winter,True,0.3664,i did like it so much. nice phone,1.0
138,ORD191305,ID0579498250,2019-12-16,Thompson,"[('iStream', 2), ('Lucent 330S', 2), ('Universe Note', 1), ('Olivia x460', 2)]",8660.0,52.42,-37.8142019,144.94947140000005,10,7846.42,Summer,False,0.2713,"keep lt hello i am not happy with the z4 lucent , if i if i would have a chance i would send it back fred dalpetz",0.0
139,ORD301364,ID6206936510,2019-12-26,Thompson,"[('Lucent 330S', 1), ('pearTV', 2), ('Olivia x460', 2)]",16300.0,93.11,-37.80589620000001,144.9443458,0,16393.11,Summer,True,0.7915,five stars love the phone so far...have only had it for a week though.,1.0
140,ORD083673,ID0655124863,2019-04-23,Thompson,"[('Universe Note', 2), ('Lucent 330S', 1)]",8130.0,63.59,-37.8075571,144.9420019,10,7380.59,Autumn,False,0.7231,telefono olivia exelente telefono lo compre para mi hija y es exelente cumple con todo lo que necesito es un telefono ideal ya que le consigo muchos accesorios,1.0
141,ORD446797,ID0846546788,2019-07-19,Nickolson,"[('Thunder line', 1), ('Toshika 750', 2), ('Olivia x460', 2)]",13270.0,60.21,-37.819948600000004,144.9685642,10,12003.21,Winter,False,0.1739,a+++ excellent phone & features. still getting used to all of it's functions.,1.0
142,ORD073684,ID0356092106,2019-04-15,Bakers,"[('Olivia x460', 2), ('iAssist Line', 1), ('Universe Note', 1), ('Candle Inferno', 2)]",8985.0,80.34,-37.8188557,144.998089,5,8616.09,Autumn,True,1.0177,five stars great pruduct. ir works beautifully and super fast. the delivery: days before programmed. i just love my new phone...,1.0
143,ORD000651,ID0847526574,2019-08-03,Nickolson,"[('Candle Inferno', 2), ('Olivia x460', 2), ('pearTV', 1)]",9620.0,48.3,-37.8235063,144.9675756,10,8706.3,Winter,False,0.5736,"i bought this originally for a younger child to download apps for learning for school and for a few games. it works well, no issues with that, but it is a little harder for him to navigate. from my standpoint, it is smooth and operates the way i expect it.",0.0
144,ORD491707,ID4655129065,2019-06-28,Thompson,"[('Candle Inferno', 1), ('Toshika 750', 2), ('Lucent 330S', 1), ('pearTV', 2)]",22920.0,73.2,-37.8098883,144.9477015,15,19555.2,Winter,True,0.315,four stars item was in great condition,1.0
145,ORD403428,ID0371972631,2019-09-17,Nickolson,"[('Lucent 330S', 2), ('Toshika 750', 1), ('pearTV', 1)]",13090.0,106.8,-37.8056402,144.97315849999995,0,13196.8,Spring,True,1.4766,five stars i would recommend a refurbished phone. mine came in excellent condition,1.0
146,ORD440451,ID2935371913,2019-06-23,Bakers,"[('Candle Inferno', 2), ('pearTV', 2)]",13480.0,80.6,-37.825135499999995,144.9920867,25,10190.6,Winter,True,1.7078,"didn't realize that there is not a camera attached to this phone. its fine, no biggie, it is just a basic phone, but i wish i had realized it didn't have the camera.",1.0
147,ORD208300,ID0144720284,2019-11-15,Thompson,"[('Olivia x460', 1), ('iStream', 1)]",1375.0,78.48,-37.82072,144.95594419999995,10,1315.98,Spring,False,1.1881,best regards. alvaro i need the power plug to reconnect the charger because i am in the usa not in europe. it is a second one to plug it into the outlet on the wall. my phone came without that second one. calaxyj5 sm-j500h...emotional version. thanks. best regards. alvaro prada,1.0
148,ORD430109,ID4735688208,2019-01-06,Thompson,"[('Toshika 750', 2), ('Alcon 10', 1), ('Lucent 330S', 1), ('Candle Inferno', 2)]",19680.0,76.4,-37.8036744,144.9493033,5,18772.4,Summer,False,1.0208,alcon xs flawless case. great hardware so happy with my alcon xs battery is at a 90% screen is flawless. back glass is flawless. face id works. so far i‚Äôm happy. you get 90 day with digico and also from the seller. happy happy happy.,1.0
149,ORD005781,ID3085926091,2019-07-15,Bakers,"[('Olivia x460', 2), ('Toshika 750', 1), ('pearTV', 1), ('iAssist Line', 2)]",17530.0,82.2,-37.824103799999996,144.9905894,15,14982.7,Winter,True,1.6226,five stars as advertised. thank you!,1.0
150,ORD422021,ID0471341037,2019-01-13,Nickolson,"[('iAssist Line', 2), ('iStream', 1), ('pearTV', 1), ('Alcon 10', 2)]",28810.0,101.99,-37.8040667,144.9668552,25,21709.49,Summer,True,1.6345,great phone awesomeness thank you! and also quick and safe shipping thanks,1.0
151,ORD349512,ID1462399059,2019-07-12,Bakers,"[('iAssist Line', 2), ('iStream', 2), ('Universe Note', 1), ('Toshika 750', 1)]",12520.0,85.9,-37.8200279,145.015796,5,11979.9,Winter,True,2.1254,great new phone from top shop great new phone - new box - all the factory stickers and cords,1.0
152,ORD200607,ID6167191742,2019-10-27,Nickolson,"[('Alcon 10', 1), ('Universe Note', 1), ('iAssist Line', 1)]",14625.0,99.41,-37.814188,144.9714467,15,12530.66,Spring,True,0.5181,i would like someone to tell me if i can use this phone in venezuela or can only purchase for use in united states i would like someone to tell me if i can use this phone in venezuela or can only purchase for use in united states,1.0
153,ORD461495,ID0026476642,2019-01-18,Thompson,"[('Toshika 750', 1), ('iAssist Line', 2), ('Olivia x460', 1), ('Lucent 330S', 1)]",11225.0,86.16,-37.82628010000001,144.93074109999995,10,10188.66,Summer,False,2.0869999999999997,nice phone works good so far but battery does not last that long,1.0
154,ORD126656,ID4380043470,2019-09-08,Nickolson,"[('Alcon 10', 2), ('iStream', 1), ('pearTV', 1), ('Candle Inferno', 2)]",25220.0,83.44,-37.8232214,144.988774,5,24042.44,Spring,False,1.0061573746813937,"like this new s7 ! phone was shipped promptly, looks like brand new and works well.",1.0
155,ORD465014,ID2177124622,2019-01-22,Thompson,"[('Alcon 10', 2), ('iAssist Line', 1)]",20125.0,73.58,-37.816268799999996,144.9563044,0,20198.58,Summer,False,0.9054,cool device well i must say it cool for the amount bought,1.0
156,ORD253669,ID0245802961,2019-05-23,Thompson,"[('iAssist Line', 2), ('Candle Inferno', 2)]",5310.0,54.37,-37.800839700000004,144.9623254,25,4036.87,Autumn,False,1.8803,i don't want has scratches all over i don't like,0.0
157,ORD458095,ID0634777966,2019-08-23,Thompson,"[('iAssist Line', 1), ('pearTV', 1)]",8535.0,77.46,-37.81476,144.9375096,15,7332.21,Winter,True,0.8722,"it works almost well apparently the protective screen that brings does not work at 100% in a tactile way, when trying to write or select something at the left edge of the screen does not react properly or normal.",1.0
158,ORD349165,ID3212024915,2019-08-02,Thompson,"[('Thunder line', 1), ('Candle Inferno', 2), ('iStream', 2)]",3340.0,74.59,-37.8083859,144.94774089999999,25,2579.59,Winter,True,0.4809,"exactly as described... fast shipping, and great product. just as described. thank you.",1.0
159,ORD280306,ID1449431539,2019-02-27,Nickolson,"[('Toshika 750', 1), ('Thunder line', 1), ('pearTV', 1)]",12810.0,58.94,-37.8114476,144.973172,5,12228.44,Summer,False,0.857,do not buy it be aware of issue with note 4. your phone will stop working sooner or later with the infamous mmc_read error (google it). this is a hardward problem and there's no fix.,0.0
160,ORD265699,ID5002595132,2019-02-21,Nickolson,"[('pearTV', 2), ('Lucent 330S', 2), ('Alcon 10', 2)]",32980.0,91.39,-37.811867299999996,144.9529678,15,28124.39,Summer,True,1.0377551910585958,"love it great phone, easy to set up and use and phone looks brand new",1.0
161,ORD251591,ID2021108591,2019-01-23,Thompson,"[('Thunder line', 1), ('Candle Inferno', 2)]",3040.0,75.71,-37.8095146,144.9579733,25,2355.71,Summer,False,1.0214,five stars excelent thank you,1.0
162,ORD254793,ID0294621152,2019-11-02,Nickolson,"[('Candle Inferno', 2), ('Lucent 330S', 2), ('iAssist Line', 1), ('Olivia x460', 2)]",7995.0,71.88,-37.8181136,144.96689919999997,5,7667.13,Spring,False,0.2393,five stars great phone.......,1.0
163,ORD290711,ID6167489398,2019-05-14,Thompson,"[('iStream', 2), ('Toshika 750', 2), ('pearTV', 1)]",15250.0,51.45,-37.8100068,144.9585957,0,15301.45,Autumn,False,1.0563,"bad battery the battery on the phone only lasted 4 hour even when i left it alone after getting everything set up. the return took 1 month to happen, i had to constantly call digico to get my refund even though the item was returned a month prior",0.0
164,ORD028022,ID6167191743,2019-01-23,Nickolson,"[('Alcon 10', 2), ('Thunder line', 2), ('iStream', 1), ('Olivia x460', 1)]",23635.0,90.21,-37.8141371,144.9716123,0,23725.21,Summer,True,0.5283,great phone the phone came with a little scratch on the side but besides that it was absolutely perfect,1.0
165,ORD059428,ID0103301632,2019-05-10,Nickolson,"[('Toshika 750', 2), ('Universe Note', 1)]",12090.0,80.09,-37.8160743,144.96186719999997,10,10961.09,Autumn,True,0.7316,great midpriced phone nice phone. works well.,1.0
166,ORD473639,ID4520380452,2019-10-25,Nickolson,"[('Candle Inferno', 1), ('iAssist Line', 1)]",2655.0,61.39,-37.8216135,144.9613542,0,2716.39,Spring,False,0.7952,"disappointed i just bought this phone, i was so disappointed when i took it to verizon, i was shocked when they showed me that the sim card tray or sim card holder is missing. disappointed",0.0
167,ORD018058,ID1479905401,2019-03-11,Nickolson,"[('Toshika 750', 1), ('iAssist Line', 2), ('Lucent 330S', 2)]",11230.0,65.66,-37.8206097,144.95685469999995,15,9611.16,Autumn,False,1.1387,"great phone, the battery life is amazing even tho ... great phone, the battery life is amazing even tho it was used, the screen was perfect shape, just a few small dings on the edge but not noticible once you put it in a case. awesome performance and it's basically a brand-new phone for 200 bucks.",1.0
168,ORD020706,ID0617564713,2019-12-14,Nickolson,"[('Alcon 10', 1), ('Candle Inferno', 2)]",9810.0,54.17,-37.821047899999996,144.9655492,0,9864.17,Summer,False,0.4454,"bad battery i‚Äôm happy with the way the phone looks but upon opening it, it shows it only has 88% battery lifespan. in order to be a certified refurb they really should be replacing with a new battery. the price is expensive enough that the phone should work ‚Äúas new‚Äù and that includes a battery that can hold a complete charge. not pleased.",0.0
169,ORD169191,ID2180815093,2019-06-16,Bakers,"[('iAssist Line', 1), ('Thunder line', 1)]",4405.0,63.51,-37.8171331,144.9606427,25,3367.26,Winter,False,1.0733435108970732,five stars great phone awesome display,1.0
170,ORD306002,ID4283908173,2019-05-23,Bakers,"[('Lucent 330S', 1), ('Candle Inferno', 1)]",1660.0,50.98,-37.8110224,145.0051534,25,1295.98,Autumn,False,0.88,no warranty no warranty. be careful,0.0
171,ORD350056,ID0726900800,2019-03-07,Nickolson,"[('Olivia x460', 1), ('Thunder line', 1), ('pearTV', 2), ('iAssist Line', 2)]",20475.0,66.88,-37.824202899999996,144.9589442,25,15423.13,Autumn,False,1.1223,love my phone and finally it i'm giving 3 stars because it was a month long process. i kept getting a damaged phone. very frustrating. love my phone and finally it works,1.0
172,ORD295154,ID1879266190,2019-09-05,Thompson,"[('Lucent 330S', 2), ('Candle Inferno', 1), ('Alcon 10', 1), ('Olivia x460', 1)]",13065.0,110.65,-37.8022222,144.96333230000005,25,9909.4,Spring,True,1.8437,no headphones very nice phone works very good and looks very nice but is not factory unlocked and i did not get any headphones.,1.0
173,ORD171144,ID0598401462,2019-03-30,Nickolson,"[('Lucent 330S', 1), ('iStream', 1), ('Toshika 750', 2)]",10020.0,78.82,-37.8148152,144.96420890000005,10,9096.82,Autumn,True,0.6307,five stars awesome phone. hopefully xp will make next phone (7 or 8) even better. thank xp.,1.0
174,ORD210747,ID5231666921,2019-11-17,Thompson,"[('iStream', 1), ('Candle Inferno', 1)]",580.0,66.88,-37.826178399999996,144.951993,10,588.88,Spring,False,1.5645,"stay away from lucentrola/lenovo phones phone is 8 months old, battery does not hold a charge unless in plugged to electrical outlet, volume buttons stooped working, lucentrola wont replace phone because they claimed that i did not purchase the phone directly from their store, really bad customer care",0.0
175,ORD105572,ID6167191159,2019-09-30,Nickolson,"[('Thunder line', 1), ('Universe Note', 1)]",5630.0,97.29,-37.8153974,144.9665041,25,4319.79,Spring,True,0.4455,five stars good,1.0
176,ORD036560,ID0363385474,2019-02-06,Thompson,"[('pearTV', 2), ('Toshika 750', 1), ('iAssist Line', 1), ('Thunder line', 1)]",21345.0,87.89,-37.79935089999999,144.9594941,0,21432.89,Summer,True,1.8421,not good w verizon (user trial experience) skip over this if you don't live under your provider's tower. dropped calls x9 and failure to pick up provider signal despite 24bands. tossed.,0.0
177,ORD358096,ID3189789232,2019-06-12,Nickolson,"[('Candle Inferno', 2), ('pearTV', 2)]",13480.0,82.65,-37.804002399999995,144.968017,5,12888.65,Winter,True,1.63,"and i really like how intuitive the phone and interface are i've had the phone for a few months, and i really like how intuitive the phone and interface are. simple to use, great screen, and hasn't caught inferno, not an pear, and doesn't cost an arm and a leg.",1.0
178,ORD275036,ID0145261423,2019-08-03,Nickolson,"[('pearTV', 1), ('Universe Note', 1)]",9760.0,76.4,-37.81568710000001,144.9619425,10,8860.4,Winter,True,0.7433,"perfecta compra perfecto, es m√°s hermoso de lo que imagin√© y en funci√≥n, aplicaciones, memoria, c√°mara üëå",1.0
179,ORD316395,ID6167440951,2019-08-07,Nickolson,"[('iAssist Line', 2), ('Thunder line', 2), ('Universe Note', 2), ('Alcon 10', 1)]",24660.0,64.08,-37.816213399999995,144.963933,15,21025.08,Winter,False,0.5607,very good only thing that doesn't work is the vibration but i can live without it,1.0
180,ORD201347,ID0655124677,2019-10-24,Thompson,"[('Universe Note', 2), ('iStream', 2), ('Thunder line', 1)]",9380.0,75.92,-37.80780170000001,144.9424368,15,8048.92,Spring,False,0.6782,"phones good. this phone still had the contacts, text messages, and pictures. it wasn't anything to delete them, one would just expect that stuff to be done. phones good.",1.0
181,ORD019736,ID0443274305,2019-01-03,Bakers,"[('pearTV', 1), ('Olivia x460', 2), ('Lucent 330S', 1), ('iStream', 1)]",10140.0,102.09,-37.8230202,145.0025621,15,8721.09,Summer,True,1.5866,oldie but goodie this is one of the greatest phones pushed to market.,1.0
182,ORD267969,ID5290706357,2019-10-03,Nickolson,"[('Thunder line', 2), ('Alcon 10', 2), ('Toshika 750', 1), ('Olivia x460', 1)]",27805.0,64.04,-37.8081661,144.97649030000005,5,26478.79,Spring,False,1.3115,"alcon, pixel, olivia are all better than huawei had olivia, blackberry, htc / pixel, pear before... they all are better than this overly overly priced phone. huawei's ui is really bad. it is full of bloatware too. can't trust this company. do yourself a favor and avoid this!",0.0
183,ORD021702,ID1546958636,2019-12-22,Bakers,"[('iStream', 1), ('Alcon 10', 1), ('Thunder line', 2), ('iAssist Line', 1)]",15685.0,82.0,-37.8117731,145.01352509999995,15,13414.25,Summer,False,1.6209,beautiful phone! love this phone.it is beautiful. it is slim and a nice size. a bit larger than my other olivia & i like it bigger. great price too.,1.0
184,ORD289445,ID6167357830,2019-10-07,Nickolson,"[('Toshika 750', 2), ('Olivia x460', 2), ('Alcon 10', 1)]",20040.0,106.86,-37.80798920000001,144.97161,15,17140.86,Spring,True,1.1944,good product.,1.0
185,ORD037261,ID5314227975,2019-08-21,Bakers,"[('Lucent 330S', 2), ('pearTV', 1)]",8770.0,61.62,-37.8188451,144.9654245,5,8393.12,Winter,False,1.0733435108970732,super great nothing to complaint.,1.0
186,ORD148048,ID3215192365,2019-04-26,Thompson,"[('Alcon 10', 2), ('Universe Note', 1), ('Candle Inferno', 2)]",22210.0,63.82,-37.8095814,144.9460585,15,18942.32,Autumn,True,0.3555,warning. don't rely on it. the charging port is very weak. it lasted less than 3 months. now i have to wiggle and wiggle the cord around to get it to charge. i'm out of the country so can't get it replaced easily. now i have to buy a new phone.,0.0
187,ORD039148,ID1463620799,2019-03-10,Bakers,"[('iAssist Line', 1), ('Candle Inferno', 1), ('pearTV', 2)]",15275.0,67.41,-37.816358799999996,145.00578000000004,25,11523.66,Autumn,False,1.1671,great value for great price high quality fone should gotten it earlier,1.0
188,ORD067612,ID0781087867,2019-04-10,Bakers,"[('iAssist Line', 2), ('Universe Note', 2), ('Alcon 10', 2), ('Candle Inferno', 1)]",29680.0,70.36,-37.811876299999994,145.01492549999998,25,22330.36,Autumn,False,1.7445,five stars awesome cheap phone for the price,1.0
189,ORD403348,ID4353912789,2019-06-01,Bakers,"[('Toshika 750', 2), ('Lucent 330S', 2)]",11100.0,71.62,-37.82481370000001,145.0148278,5,10616.62,Winter,True,2.3854,bad and poor product worse product...it seem to came as a used phone with a password and screensaver on it along with a not new charger adapter...it just seemed totally used and now have to pay all the in barbados to get it factory reset...i would like my money back also...very upset and poor,0.0
190,ORD375539,ID4633638464,2019-11-30,Thompson,"[('Alcon 10', 1), ('Lucent 330S', 2), ('Thunder line', 1)]",13590.0,87.02,-37.8061875,144.9443483,10,12318.02,Spring,True,0.7606,i didn't recieve this item n im very disappointed i ordered two phone of this same brand one ... i didn't recieve this item n im very disappointed i ordered two phone of this same brand one copper n one black i only recieve the copper,0.0
191,ORD486584,ID0746912625,2019-01-20,Nickolson,"[('Alcon 10', 2), ('Toshika 750', 2), ('Candle Inferno', 1), ('Olivia x460', 2)]",29420.0,81.14,-37.8254119,144.98466480000005,10,26559.14,Summer,False,1.0345473085959094,i like my tablet. been doing a lot more reading than normal with it. only disspoinment is that my tv has automatic chromecast and you cannot cast to it on my toshiba tv. works on others. tvs. i like it.,1.0
192,ORD267786,ID1449431476,2019-08-24,Nickolson,"[('pearTV', 2), ('Thunder line', 2)]",16980.0,59.57,-37.8131754,144.973829,25,12794.57,Winter,True,0.711,false advertising falsely advertised as 4g and lte..this phone will give you neither. i'm in nyc and i could not even call out and when i did the other person sounded like a robot. bluetooth doesn't work in the car because of course theres no data. highly dissatisfied. stay far away from this phone!!!!,0.0
193,ORD009411,ID0702363967,2019-10-13,Thompson,"[('Lucent 330S', 1), ('Candle Inferno', 1), ('iAssist Line', 2), ('Thunder line', 2)]",10470.0,78.05,-37.80517920000001,144.94097299999999,5,10024.55,Spring,False,0.9916,"i love this phone i love this phone. it's gorgeous, works great, and it runs windows 10 with official updates! so much better than the pathetic windows offerings verizon has now. considering stocking up with a spare.",1.0
194,ORD459728,ID0202498544,2019-06-18,Thompson,"[('Alcon 10', 2), ('iStream', 2)]",18200.0,61.71,-37.80134570000001,144.9174425,10,16441.71,Winter,False,2.8947,"battery life is disapointing :( i just got this phone and like all of my other phones i charged it to 100% before i used it for the first time. the phone literally last for only half of the day about 10 hours max 4000mha should last 12-16 hours max, this is insane.",0.0
195,ORD313446,ID3208518292,2019-03-23,Nickolson,"[('Toshika 750', 1), ('Universe Note', 1), ('Lucent 330S', 1), ('iStream', 2)]",9300.0,55.07,-37.805851399999995,144.9644836,10,8425.07,Autumn,False,1.4869,two stars it does not keep a charge at all.,0.0
196,ORD119921,ID0710002029,2019-07-26,Thompson,"[('Lucent 330S', 1), ('Alcon 10', 1), ('iAssist Line', 2), ('Universe Note', 1)]",18080.0,66.88,-37.8133476,144.93575019999997,5,17242.88,Winter,False,0.9982,"works, but don't get in a hurry. for the price, it gets the job done. apps and functionality is great when it doesn't lag. can be extremely slow at times. camera is not very good. no lock screen, so that's a bummer.",1.0
197,ORD262237,ID1492410184,2019-03-05,Nickolson,"[('Thunder line', 1), ('iAssist Line', 1)]",4405.0,81.84,-37.804231099999996,144.96318780000001,0,4486.84,Autumn,True,1.694,awesome great phone,1.0
198,ORD242274,ID0767730096,2019-02-20,Nickolson,"[('Candle Inferno', 2), ('Toshika 750', 1), ('Universe Note', 2)]",12080.0,84.59,-37.804964299999995,144.970646,25,9144.59,Summer,True,1.5204,"warning everyone!!!! don't buy this phone!!!! broke 2 days after buying it. sound has issues. i can't talk on regular phone, i have to always use speaker. all sound apps including youtube you can't hear, volume is all the way up. what phone i ever owned. do not buy.",0.0
199,ORD153665,ID0781109166,2019-07-14,Bakers,"[('Thunder line', 2), ('iAssist Line', 2), ('pearTV', 1)]",15120.0,85.09,-37.8158459,145.01541830000005,5,14449.09,Winter,True,1.8909,"provides very good protection. works as advertized, provides very good protection.",1.0
200,ORD161439,ID6207070037,2019-05-28,Nickolson,"[('Candle Inferno', 2), ('Thunder line', 1), ('iAssist Line', 2)]",7490.0,66.08,-37.81047589999999,144.9669605,0,7556.08,Autumn,True,0.9321,one star description stated it is for sprint. sprint would not activate the phone. very frustrating all around.,0.0
201,ORD429923,ID3212024929,2019-11-20,Thompson,"[('Alcon 10', 2), ('Olivia x460', 2), ('Universe Note', 2), ('Thunder line', 1)]",29430.0,84.61,-37.807205700000004,144.9485206,15,25100.11,Spring,True,0.6219,one star couldn't get it to work at all.,0.0
202,ORD317606,ID2187770691,2019-11-24,Nickolson,"[('Olivia x460', 2), ('Thunder line', 1)]",4630.0,76.61,-37.8115975,144.9647755,25,3549.11,Spring,False,0.8849,just be sure to call your provider to make sure that it works with them worked out great bought it for my younger brother who does not deserve a fancy smartphone it did the job and it works fine we verified with t-mobile that we could use it with our service,1.0
203,ORD432262,ID5002595108,2019-04-17,Bakers,"[('Thunder line', 2), ('Lucent 330S', 2), ('Universe Note', 2)]",13720.0,62.31,-37.812095299999996,144.9534154,0,13782.31,Autumn,True,1.1532336564944363,"picture is deceiving knew i was getting a used phone, but this is the worse purchase i ever made with digico. scratches all over the phone, some buttons don't work well. and when im talking it sounds like im under water. very disappointed.",0.0
204,ORD384412,ID0372993330,2019-12-23,Bakers,"[('Olivia x460', 1), ('Lucent 330S', 2), ('Toshika 750', 1), ('iAssist Line', 1)]",10230.0,64.03,-37.8076398,144.98091259999995,25,7736.53,Summer,False,1.2864,"lost money on this one phone turned on for about 2 minutes and completely shut off, would not charge or turn on ever again. it 2as charged with a out 10 different chargers. no luck.",0.0
205,ORD279346,ID0387266357,2019-09-16,Thompson,"[('Olivia x460', 2), ('iStream', 1)]",2600.0,77.12,-37.8103955,144.9556369,25,2027.12,Spring,False,0.795,thumbs up for universe s6 good phone...liked the display and picture quality. ....,1.0
206,ORD260736,ID2975244178,2019-03-19,Thompson,"[('Olivia x460', 1), ('Candle Inferno', 2), ('Thunder line', 1)]",4265.0,54.63,-37.7994496,144.95963830000005,0,4319.63,Autumn,False,1.8409,"phone was not gsm unlocked as advertised not happy at all, bought phone to work with cricket and come to find out it was carrier locked to t mobile!!!",0.0
207,ORD272771,ID4307285742,2019-09-24,Thompson,"[('Toshika 750', 2), ('iAssist Line', 2)]",13090.0,81.6,-37.8161635,145.0099421,10,11862.6,Spring,False,1.0061573746813937,"and an excellent price, it is a very good buy this is not a state of the art phone, but with a battery that lasts two days, 32 gigs of ram, and an excellent price, it is a very good buy. i would have given it 5 stars if the camera was better.",1.0
208,ORD313776,ID2190625294,2019-10-01,Nickolson,"[('Thunder line', 1), ('Alcon 10', 2)]",20080.0,104.15,-37.80962150000001,144.96362140000005,5,19180.15,Spring,True,1.1268,"good battery life good battery life, no connection issues on domestic or international calls. only thing is internal memory 8 gb isn't enough at all.",1.0
209,ORD121556,ID0780909202,2019-04-19,Thompson,"[('Universe Note', 2), ('Candle Inferno', 2), ('Thunder line', 2)]",12120.0,80.63,-37.8035966,144.9564425,5,11594.63,Autumn,True,1.304,"couldnt ask for anything better from a used refurbished product works and looks new, couldnt ask for anything better from a used refurbished product.",1.0
210,ORD342728,ID0127650543,2019-12-01,Thompson,"[('Lucent 330S', 2), ('pearTV', 1), ('Thunder line', 1), ('Candle Inferno', 1)]",11380.0,71.98,-37.8058794,144.94835780000003,5,10882.98,Summer,False,0.7647,good buy ringer tone is too low that is my only complaint. otherwise i love it. received it in a very timely manner and it was as if it had never been used.,1.0
211,ORD271090,ID2716423442,2019-06-14,Thompson,"[('iStream', 1), ('Candle Inferno', 1), ('Universe Note', 2)]",7480.0,57.53,-37.813908399999995,144.9463967,0,7537.53,Winter,True,0.1497,i've already returned it.,0.0
212,ORD481105,ID4716795639,2019-07-10,Thompson,"[('Lucent 330S', 2), ('iAssist Line', 1), ('Alcon 10', 1)]",13635.0,51.12,-37.818826,144.95315680000004,0,13686.12,Winter,False,0.8693,"very bad this for me becouse i hoped the fingerprint scaneer ... the phone does not have the fingerprint scanner, nowhere in digico does mention that the phone does not have the option. very bad this for me becouse i hoped the fingerprint scaneer on the phone.",0.0
213,ORD012298,ID6167344365,2019-05-07,Nickolson,"[('pearTV', 1), ('iStream', 2), ('Candle Inferno', 1)]",7040.0,64.92,-37.8147838,144.96885930000005,10,6400.92,Autumn,False,0.4286,"lucentrola droid turbo black ballistic nylon love this phone best cell i have ever had,,,, super price and super fast shipping.... a pleasure doing business with. thanks gizmo trader",1.0
214,ORD287072,ID5402876533,2019-10-01,Nickolson,"[('Universe Note', 2), ('Toshika 750', 2)]",15540.0,76.31,-37.8212809,144.9769235,15,13285.31,Spring,False,0.7139,great phone for the price a lovely phone at a very affordable price. probably the best looking phone i've ever seen. works really well so far. i'm loving it.,1.0
215,ORD366811,ID0579999049,2019-02-10,Thompson,"[('Olivia x460', 2), ('Alcon 10', 1)]",11400.0,82.08,-37.806212,144.9353959,10,10342.08,Summer,True,1.2535,one star very exbensive,0.0
216,ORD147226,ID2190560995,2019-01-21,Nickolson,"[('Thunder line', 2), ('Universe Note', 1), ('Alcon 10', 1)]",16760.0,77.89,-37.8102862,144.96132849999995,5,15999.89,Summer,False,1.1740000000000002,i wanted something for games and reading so i thought this was a great deal. i have enjoyed it so much. passes a lot of time for me. easy to download on too.,1.0
217,ORD332651,ID0401505827,2019-08-29,Bakers,"[('Olivia x460', 2), ('Toshika 750', 2), ('pearTV', 1), ('Universe Note', 2)]",24300.0,80.48,-37.7984351,144.986345,15,20735.48,Winter,True,1.5057,great value for the money. works great. great value for the money. i don't know why so many people get these super expensive $800+ phones anymore. phones like these are all you really need. highly recommend. so far so good. xp is staying consistent with excellent products.,1.0
218,ORD425736,ID0266737768,2019-04-17,Nickolson,"[('Olivia x460', 1), ('Alcon 10', 1), ('Candle Inferno', 1), ('iAssist Line', 2)]",15055.0,50.67,-37.822123,144.9802501,15,12847.42,Autumn,False,1.0195,"switching to oneplus from my pixel 2. luv camera bot others caught up with google. terrible battery life, low storage just 64 for $800 and no more unlimited cloud backup for your pics and videos on original quality.",0.0
219,ORD120043,ID5402876529,2019-01-26,Nickolson,"[('iStream', 2), ('pearTV', 2), ('Universe Note', 1), ('Thunder line', 1)]",18550.0,91.09,-37.8210001,144.9767196,25,14003.59,Summer,True,0.6849,"she was in awe of the features. a gift for my mom because her last phone that i gifted her finally gave up the ghost.....she cried at how much she loves this phone! awwww maaaa! dry them eyes, will ya? üòÄ",1.0
220,ORD057377,ID3144992697,2019-04-10,Bakers,"[('Lucent 330S', 2), ('pearTV', 2), ('Olivia x460', 1)]",16305.0,65.04,-37.8147435,144.9875053,0,16370.04,Autumn,False,0.8608,honesty the note 3 phone was in great condition exactly what i ordered i was very happy with my purchase and would recommend to others happily. . thank you.,1.0
221,ORD488600,ID0547568994,2019-10-17,Bakers,"[('iAssist Line', 1), ('pearTV', 1)]",8535.0,76.53,-37.8106736,144.9867134,15,7331.28,Spring,False,0.753,four stars its a good phone.,1.0
222,ORD040149,ID5276518425,2019-05-24,Nickolson,"[('Universe Note', 2), ('Toshika 750', 1)]",11220.0,66.53,-37.8118821,144.9789917,5,10725.53,Autumn,True,1.117,"i have a hard time navigating the menus and use is not intuitive,",0.0
223,ORD387830,ID0301537531,2019-10-04,Thompson,"[('Alcon 10', 2), ('Toshika 750', 1)]",22220.0,102.04,-37.8199807,144.9460108,15,18989.04,Spring,True,0.8188,we bought it for our 9 yr. old daughter and she loves it. we do as well. candle tablets are great!,1.0
224,ORD072265,ID0777801080,2019-12-11,Thompson,"[('Olivia x460', 2), ('Alcon 10', 2)]",20350.0,76.09,-37.80494520000001,144.95522869999996,25,15338.59,Summer,False,1.1203,pretty heavy screen burn but everything works defiantly worth the discount price. pretty heavy screen burn but everything works. would defiantly buy from this vendor again,1.0
225,ORD349688,ID6195295691,2019-08-24,Bakers,"[('pearTV', 1), ('Toshika 750', 2), ('Thunder line', 2)]",19310.0,74.39,-37.8250996,145.0100926,25,14556.89,Winter,False,2.1294,"five stars great cellphone!, no problem with the shipping, all included as said! recommended of course!",1.0
226,ORD232978,ID4305737105,2019-05-05,Bakers,"[('pearTV', 2), ('iAssist Line', 1), ('Universe Note', 1)]",18295.0,83.17,-37.8127666,145.0127195,0,18378.17,Autumn,True,1.5685,my new fav phone great phone with useful apps. it is super neat and great to use. i love it,1.0
227,ORD249425,ID0541122879,2019-12-31,Bakers,"[('iStream', 2), ('Thunder line', 1), ('Alcon 10', 1)]",11430.0,101.48,-37.80510020000001,145.0150051,5,10959.98,Summer,True,1.8224,great this is my husbands phone...i have the white version. no complaints here...,1.0
228,ORD131527,ID4735836861,2019-03-04,Thompson,"[('Candle Inferno', 2), ('Universe Note', 2)]",7760.0,51.95,-37.803506299999995,144.9499743,0,7811.95,Autumn,False,1.0519,"phone just got cut off because it was stolen, ... phone just got cut off because it was stolen, that‚Äôs what t mobile rep said. smh i can‚Äôt use it no more",0.0
229,ORD054426,ID3106293369,2019-11-24,Thompson,"[('Candle Inferno', 1), ('Olivia x460', 1)]",1655.0,82.82,-37.806766100000004,144.9322936,15,1489.57,Spring,False,1.4563,"awesome a great phone, awesome screen & great pictures. battery life is great. i ordered one for my husband too & he just loves it.",1.0
230,ORD456713,ID3862394075,2019-04-05,Thompson,"[('pearTV', 2), ('iStream', 2), ('iAssist Line', 1), ('Lucent 330S', 2)]",17605.0,62.57,-37.8089317,144.9489188,10,15907.07,Autumn,True,0.4471,speakers quit after 1week of use. speakers quit after 1week of use. same design flaw as the previous generation model.,0.0
231,ORD262480,ID4353937737,2019-07-10,Nickolson,"[('iStream', 1), ('Toshika 750', 1)]",4470.0,71.04,-37.8226209,145.0106927,10,4094.04,Winter,False,1.0733435108970732,five stars nice product,1.0
232,ORD235822,ID0253027660,2019-01-19,Thompson,"[('pearTV', 2), ('iAssist Line', 2), ('Toshika 750', 2)]",25710.0,96.17,-37.8230565,144.942479,15,21949.67,Summer,True,1.2243,great deal amazing camera,1.0
233,ORD498976,ID5002595131,2019-02-20,Thompson,"[('Olivia x460', 2), ('Thunder line', 1)]",4630.0,71.41,-37.8119624,144.9534267,15,4006.91,Summer,False,0.5647,four stars nice i like,1.0
234,ORD342881,ID2399230962,2019-10-04,Bakers,"[('Candle Inferno', 2), ('Thunder line', 1)]",3040.0,79.38,-37.80681060000001,144.9833998,15,2663.38,Spring,False,1.0994,five stars great used phones.,1.0
235,ORD111471,ID6167417956,2019-11-13,Nickolson,"[('Thunder line', 2), ('Olivia x460', 1)]",5585.0,99.98,-37.8134476,144.9656069,25,4288.73,Spring,True,0.6698,five stars good product!,1.0
236,ORD300817,ID6167344493,2019-03-19,Nickolson,"[('Toshika 750', 2), ('Candle Inferno', 2)]",9500.0,80.29,-37.8087126,144.9663936,15,8155.29,Autumn,True,1.1346,five stars happy with my purchase,1.0
237,ORD053618,ID5680175093,2019-07-21,Bakers,"[('Thunder line', 2), ('Universe Note', 1)]",7810.0,78.92,-37.8105006,144.9833791,15,6717.42,Winter,True,1.0439,adequate product. it is a product of which is older but affordable for the purpose of what i need it for and not often.,1.0
238,ORD098998,ID0758631468,2019-06-21,Thompson,"[('pearTV', 1), ('Olivia x460', 2), ('Toshika 750', 1), ('Thunder line', 2)]",17440.0,65.43,-37.8195048,144.9424987,10,15761.43,Winter,False,0.8601,"still learning, previously used a nexus7. like the larger screen. reading candle books on it is good too.",1.0
239,ORD003230,ID0723967270,2019-12-20,Bakers,"[('Candle Inferno', 2), ('Lucent 330S', 2), ('Toshika 750', 2)]",11960.0,93.23,-37.8039646,145.0033097,25,9063.23,Summer,True,0.9775,five stars thank you,1.0
240,ORD127636,ID0441587733,2019-07-04,Thompson,"[('Universe Note', 2), ('Lucent 330S', 2)]",9360.0,61.6,-37.8143802,144.9382043,25,7081.6,Winter,True,0.8024,do not buy from seller run! this guy is a liar and a thief. he has a lease on the phone and can't be used by anyone. do not buy from him no matter what.,0.0
241,ORD108393,ID0577456464,2019-08-30,Bakers,"[('Olivia x460', 2), ('Candle Inferno', 1), ('pearTV', 2)]",15500.0,68.85,-37.823082299999996,144.9881706,15,13243.85,Winter,False,1.5835,"sounds great, lasts long! battery life is stellar and the speakers volume and quality blows away the competition",1.0
242,ORD293855,ID0130039064,2019-05-08,Thompson,"[('Toshika 750', 1), ('iStream', 2)]",4620.0,80.84,-37.805337,144.9375987,25,3545.84,Autumn,True,1.1664,"good phone, i lost one like it that i ... good phone , i lost one like it that i had for 6 years with no problems, so i got a new one just like it!",1.0
243,ORD419337,ID0580321412,2019-02-13,Thompson,"[('Universe Note', 2), ('Candle Inferno', 2)]",7760.0,97.33,-37.80555,144.9353969,0,7857.33,Summer,True,1.2971,works great he likes it fine.. wanted to wait on review and it seems to be a good phone. glad i bought it.,1.0
244,ORD027926,ID1458418003,2019-07-02,Bakers,"[('Candle Inferno', 1), ('iAssist Line', 2), ('Alcon 10', 2)]",22780.0,72.05,-37.81972879999999,145.00988859999995,15,19435.05,Winter,False,1.6838,great product and servicce exception just like it was protrayed,1.0
245,ORD047248,ID5797722962,2019-10-25,Thompson,"[('Lucent 330S', 1), ('Toshika 750', 1)]",5550.0,87.72,-37.806413,144.944002,0,5637.72,Spring,True,0.7472,bad unit. overall decent phone if you can find one that works. the camera sensor came in messed up. alot of these refurb phones are not fixed properly.,0.0
246,ORD147611,ID6167191730,2019-04-02,Nickolson,"[('Alcon 10', 1), ('pearTV', 1), ('Universe Note', 2), ('iAssist Line', 1)]",24385.0,64.58,-37.8158211,144.9658061,10,22011.08,Autumn,False,0.4514,"it's easy and intuitive. the only criticism is that it should be easier to go right into an application, instead of watching an advertisement, then having to figure out how to exit it",1.0
247,ORD469503,ID0387153038,2019-08-21,Thompson,"[('Alcon 10', 2), ('Candle Inferno', 1), ('iStream', 1)]",18480.0,68.36,-37.798676,144.94880859999995,10,16700.36,Winter,False,1.5656,a perfect deal good deal in such a low price. believe me guys it is as same as a brand new phone. edge lighting makes it look so sexy.,1.0
248,ORD467467,ID0702376185,2019-04-11,Bakers,"[('iStream', 1), ('pearTV', 2), ('Thunder line', 2), ('Olivia x460', 1)]",18355.0,63.88,-37.8062369,144.9416974,15,15665.63,Autumn,False,1.1567093092431417,awesome phone love it,1.0
249,ORD111442,ID2005895252,2019-02-16,Bakers,"[('Thunder line', 2), ('Candle Inferno', 2)]",5220.0,104.75,-37.8020899,144.96595459999998,10,4802.75,Summer,True,1.0377551910585958,"good budget phone real good phone very fast and good battery life, just remember to buy an sd mini card for memory internal memory gets field up to quick.",1.0
250,ORD259670,ID1459448721,2019-04-23,Bakers,"[('iAssist Line', 2), ('pearTV', 1), ('Lucent 330S', 2), ('Universe Note', 2)]",20120.0,68.3,-37.8195384,145.00887959999997,0,20188.3,Autumn,False,1.6027,well olivia has always been a great brand didn't think it would be so tiny should have paid attention to the dimension,1.0
251,ORD346575,ID6167441063,2019-04-29,Nickolson,"[('Universe Note', 1), ('Candle Inferno', 1), ('Thunder line', 2), ('Toshika 750', 2)]",16880.0,65.31,-37.8141653,144.9632906,10,15257.31,Autumn,False,0.7391,five stars it's good,1.0
252,ORD335658,ID0247031987,2019-09-10,Nickolson,"[('Lucent 330S', 1), ('iAssist Line', 1)]",3455.0,99.54,-37.814108000000004,144.972422,25,2690.79,Spring,True,0.5597,"quality phone i keep it locked at 90hz and it lasts the whole day. plenty of great features, but nothing that gets in the way of using the phone. i use it for reading and browsing mostly and the image quality is great.",1.0
253,ORD157351,ID1463620982,2019-01-03,Bakers,"[('Thunder line', 1), ('Candle Inferno', 2), ('Universe Note', 1), ('iAssist Line', 1)]",8715.0,62.57,-37.81622279999999,145.0074469,10,7906.07,Summer,False,1.2784,very disappointed. i bought his phone for my grandfather as a gift and within the first few hours we realized it barley holds a charge. very disappointed.,0.0
254,ORD003435,ID2384091380,2019-05-14,Nickolson,"[('Alcon 10', 2), ('Olivia x460', 2), ('iAssist Line', 1)]",22575.0,79.52,-37.8079064,144.9730355,5,21525.77,Autumn,True,1.2287,"dial in for a good deal this a great basic replacement phone for my mother, who did not want to be bound/enslaved to a two year contract.",1.0
255,ORD365713,ID0310727772,2019-01-14,Thompson,"[('iStream', 2), ('Toshika 750', 2), ('pearTV', 1), ('Lucent 330S', 2)]",17710.0,60.83,-37.8100335,144.93596000000005,10,15999.83,Summer,False,1.0202,"avoid this phone, save your money after a few months, this phone is having some severe issues. it randomly reboots and screen flashs for no reason.",0.0
256,ORD102217,ID0579502235,2019-11-03,Thompson,"[('Toshika 750', 1), ('Universe Note', 1), ('Thunder line', 1)]",9950.0,73.65,-37.814846100000004,144.9506248,0,10023.65,Spring,False,0.3953,three stars good,1.0
257,ORD282494,ID2400284873,2019-10-10,Nickolson,"[('Toshika 750', 1), ('Lucent 330S', 1), ('Candle Inferno', 1), ('Universe Note', 1)]",9430.0,57.55,-37.8202787,144.9651132,25,7130.05,Spring,False,0.4329,"i received it this morning, when turning on the ... i received it this morning, when turning on the cell phone it appears with a black spot on the screen, now in the afternoon, that spot grew and occupies the whole screen.",0.0
258,ORD378393,ID4754200402,2019-08-25,Thompson,"[('Thunder line', 1), ('Olivia x460', 2)]",4630.0,69.34,-37.8164324,144.9284395,5,4467.84,Winter,False,1.0733435108970732,"great deal came in great condition minus a few micro scratches on the screen. no software issues , no hardware issues.",1.0
259,ORD205358,ID6202471439,2019-09-02,Nickolson,"[('Toshika 750', 1), ('Thunder line', 1)]",6500.0,78.31,-37.821433299999995,144.9812586,15,5603.31,Spring,False,1.0769,i now have this great phone and made an extra house payment instead of ... i can't believe people are still spending ridiculous amounts of money on phones. i now have this great phone and made an extra house payment instead of getting an alcon. priorities people.,1.0
260,ORD334827,ID5002595147,2019-10-13,Thompson,"[('iStream', 1), ('Alcon 10', 1)]",9100.0,75.04,-37.81180120000001,144.9531979,5,8720.04,Spring,False,0.5477,"powerful for a budget phone. bought this for a friend. almost feels like flagship, but at ‚Öì or ¬º the price, not going to quibble about the ""almost"" part. she loves it. fast, great battery life.",1.0
261,ORD194563,ID0681285197,2019-05-25,Bakers,"[('Lucent 330S', 1), ('Toshika 750', 1), ('Thunder line', 1), ('iStream', 1)]",7880.0,62.54,-37.807601399999996,144.9917939,15,6760.54,Autumn,False,0.4031,"i purchased this as a gift but have had extensive time with it. it's a great budget tablet, phenomenal screen and a very smooth interface. handles all apps and hd content well.",1.0
262,ORD365602,ID0575386108,2019-12-16,Nickolson,"[('Olivia x460', 1), ('Candle Inferno', 1)]",1655.0,96.15,-37.8205224,144.98286869999995,0,1751.15,Summer,True,1.1906,"great item for a gift. this item was bought for a gift, it went to south america. they love it. great compliments for the item.",1.0
263,ORD423531,ID0257506566,2019-04-05,Thompson,"[('Candle Inferno', 2), ('pearTV', 2)]",13480.0,69.53,-37.79958370000001,144.96338740000004,15,11527.53,Autumn,False,2.0452,"works on gsm usa i have this phone it works on metropcs, tmobile att and works just fine, it's a really good phone for the price.",1.0
264,ORD353673,ID0711331436,2019-11-03,Thompson,"[('Toshika 750', 1), ('Universe Note', 1), ('Candle Inferno', 1)]",8200.0,88.66,-37.807324200000004,144.9573854,5,7878.66,Spring,True,1.0852,disappointing phone this refurbished phone was a disappointment because it kept turning itself off. we are returning it. we were hoping it would live up to its year long warrany.,0.0
265,ORD095389,ID0310944067,2019-11-15,Bakers,"[('Candle Inferno', 1), ('pearTV', 1), ('Alcon 10', 1)]",15690.0,88.92,-37.8033468,145.0056955,0,15778.92,Spring,True,1.181,"don't purchase olivia universe s7 (renewed) i have had phone for only six months. worked well until now. it now drops calls and battery often runs low, even though i charge it nightly and only use phone to make a few calls or texts. would not purchase again.",0.0
266,ORD355938,ID0576864252,2019-09-20,Nickolson,"[('Alcon 10', 2), ('pearTV', 2)]",30520.0,67.93,-37.8242449,144.98683219999995,0,30587.93,Spring,False,1.6446,i needed to replace my phone and this model is ... i needed to replace my phone and this model is not blue tooth compatible which i needed. it does however come with a charger which is not stated.,0.0
267,ORD012855,ID5002595138,2019-09-20,Thompson,"[('Olivia x460', 2), ('iAssist Line', 1)]",4675.0,73.76,-37.81197810000001,144.95343400000004,15,4047.51,Spring,False,0.5651,beautiful phone that made the switch from pear comfortable beautiful phone that made the switch from pear comfortable. battery life is really bad but nothing a fast charger at home work or in the car cant fix,1.0
268,ORD384833,ID0506049785,2019-04-03,Thompson,"[('pearTV', 1), ('Alcon 10', 1), ('iAssist Line', 2), ('Candle Inferno', 1)]",20140.0,79.86,-37.81440070000001,144.9392639,5,19212.86,Autumn,True,0.7128,this is my third line. they all work perfectly and i use each one multiple times a day. absolutely love them.,1.0
269,ORD335797,ID2236727765,2019-06-16,Bakers,"[('Universe Note', 2), ('Olivia x460', 1), ('pearTV', 2), ('Alcon 10', 2)]",38645.0,49.61,-37.8108044,145.003225,15,32897.86,Winter,False,0.7087,i need my refund the phone was garbage. it will cost more to fix with the type of problem it has. will not open.,0.0
270,ORD383407,ID2702095691,2019-12-14,Bakers,"[('Olivia x460', 2), ('iStream', 1)]",2600.0,67.46,-37.8104554,144.99050480000002,5,2537.46,Summer,False,0.4189,quality very capable phone does a great job for an acceptable price,1.0
271,ORD486378,ID0248746632,2019-11-11,Bakers,"[('Lucent 330S', 1), ('Toshika 750', 2), ('Candle Inferno', 1)]",10300.0,74.77,-37.811840999999994,145.0027823,25,7799.77,Spring,False,1.0061573746813937,works better than what i expected. able to surf the net and watch movies. the battery life and screen are awesome. bought this for under 60 bucks and looking to buy more to give as a gift,1.0
272,ORD232337,ID3218293538,2019-01-11,Thompson,"[('Olivia x460', 2), ('Lucent 330S', 1), ('iStream', 2)]",3980.0,67.58,-37.8100167,144.944937,5,3848.58,Summer,False,0.3501,"great phone for way less i can't say enought great things about this phone. quality, speed, camera, batty life, size, fingerprint reader, price all top notch.",1.0
273,ORD274595,ID1277988773,2019-11-25,Bakers,"[('iStream', 2), ('Universe Note', 2)]",7200.0,90.72,-37.812523299999995,145.0103223,10,6570.72,Spring,True,1.3566,"one star bought it for daughter, but they won't activate these anymore",0.0
274,ORD326837,ID0246439432,2019-09-08,Nickolson,"[('Alcon 10', 1), ('Lucent 330S', 1)]",10180.0,63.81,-37.8099875,144.97152649999995,5,9734.81,Spring,False,0.9738,one star phone was reported stolen. this is ridiculous.,0.0
275,ORD182015,ID0576879076,2019-09-24,Nickolson,"[('pearTV', 2), ('Toshika 750', 1), ('Candle Inferno', 2)]",17800.0,86.47,-37.8194643,144.97919430000005,15,15216.47,Spring,True,0.8535,p√©simo articulo tel√©fono se apaga porque se calienta demasiado.,0.0
276,ORD014469,ID6167254919,2019-09-25,Nickolson,"[('iAssist Line', 2), ('Toshika 750', 2), ('Universe Note', 2), ('Lucent 330S', 2)]",22450.0,71.76,-37.818256700000006,144.96481780000005,10,20276.76,Spring,False,0.4179,five stars works perfect good company,1.0
277,ORD076700,ID0377540818,2019-05-20,Thompson,"[('Lucent 330S', 2), ('Universe Note', 2), ('pearTV', 1)]",15670.0,78.67,-37.8179635,144.9508132,15,13398.17,Autumn,True,0.6747,three stars good product didn't come in a sealed package but the phone looks new.,1.0
278,ORD229485,ID5424203729,2019-02-20,Nickolson,"[('iAssist Line', 2), ('Olivia x460', 2), ('Lucent 330S', 1)]",8130.0,92.02,-37.819002399999995,144.97694840000003,25,6189.52,Summer,True,0.6521,nice budget phone the product came early more than i had expected. packing with safty box. the phone was in original box with all tools. it works very well with t-moble with lte.,1.0
279,ORD214828,ID0294628634,2019-04-17,Nickolson,"[('Universe Note', 2), ('pearTV', 2), ('Toshika 750', 1)]",23840.0,77.04,-37.8173738,144.9703856,0,23917.04,Autumn,True,0.1545,everything brand new and perfect working condition everything brand new and perfect working condition. good deal with digico gold return protection. purchased from carolina trader. excellent price too. came with some verizon apps that mostly get in the way.,1.0
280,ORD132335,ID1217532917,2019-07-18,Thompson,"[('iAssist Line', 1), ('Alcon 10', 2), ('Lucent 330S', 2)]",22585.0,49.37,-37.818473499999996,144.9486815,25,16988.12,Winter,False,0.6611,do not buy don't buy my screen works terrible i'm about to send it back to get my money back,0.0
281,ORD287172,ID0035354783,2019-07-07,Thompson,"[('Olivia x460', 1), ('pearTV', 1), ('Alcon 10', 2)]",25435.0,76.8,-37.8079709,144.9518889,0,25511.8,Winter,True,0.6736,nice! nice big phone! unsure about the charger adapter as it appears to be european but works with my lg adapter. arrived early and will grab some card from at&t soon! gift for my teenage son.,1.0
282,ORD288292,ID0248746946,2019-08-01,Bakers,"[('iAssist Line', 2), ('Thunder line', 1), ('Alcon 10', 1), ('Universe Note', 1)]",19030.0,80.55,-37.8219025,144.9917951,0,19110.55,Winter,True,1.3594,i love you so much,1.0
283,ORD262347,ID5002595081,2019-12-25,Thompson,"[('Toshika 750', 2), ('iStream', 2), ('pearTV', 2)]",21560.0,70.37,-37.8123395,144.9536984,10,19474.37,Summer,False,0.5842,"five stars awesome sale, love it...phone looks a works fantastic..",1.0
284,ORD322644,ID0579408576,2019-10-10,Nickolson,"[('Toshika 750', 2), ('Lucent 330S', 2)]",11100.0,72.67,-37.82021029999999,144.9684007,0,11172.67,Spring,False,0.2063,"excellent product! super responsive performance excellent product! super responsive performance. the leica lens, dual camera and camera app is just the best. try the huawei's patented 3d photo, it's amazing, my only issue is i can't find another app outside the phone to view this 3d photo.",1.0
285,ORD033626,ID1833123396,2019-04-26,Thompson,"[('Thunder line', 1), ('Lucent 330S', 1)]",3410.0,82.33,-37.8035927,144.954148,0,3492.33,Autumn,True,1.1872,good phone ! this phone is very good as compared to other android phones in same price range.,1.0
286,ORD177533,ID0054552182,2019-03-01,Nickolson,"[('iAssist Line', 2), ('Universe Note', 1), ('Alcon 10', 2)]",25800.0,66.66,-37.81875,144.983448,0,25866.66,Autumn,False,1.2222,great phone awesome performance and battery life üòÅ. worth every single penny üòâ,1.0
287,ORD312204,ID3222703074,2019-07-26,Thompson,"[('Candle Inferno', 2), ('Alcon 10', 2), ('iStream', 1)]",18910.0,81.76,-37.8019579,144.9430325,0,18991.76,Winter,True,1.2445,perfect object arrived in italy in 4 days is unlocked works great aesthetically perfect only a mark above the front frame but phone comparable to the new 100% original i'm happy with this purchase thanks üòÄ,1.0
288,ORD388650,ID0298045614,2019-03-24,Nickolson,"[('Lucent 330S', 1), ('iAssist Line', 2)]",5680.0,64.15,-37.8227467,144.9667789,25,4324.15,Autumn,False,0.5225,"love the ease of use with tablet, have not had any issues",1.0
289,ORD308604,ID0774518620,2019-07-25,Thompson,"[('Thunder line', 1), ('iAssist Line', 2), ('Toshika 750', 1), ('Lucent 330S', 2)]",13410.0,66.74,-37.8064576,144.9597134,0,13476.74,Winter,False,1.3097,it works well. it works well . photo and videos are stunning however i ordered the car charger still has not arrived,1.0
290,ORD148669,ID0298046598,2019-08-02,Nickolson,"[('iStream', 2), ('Universe Note', 1), ('Alcon 10', 1), ('Lucent 330S', 2)]",15160.0,60.25,-37.821065399999995,144.9664847,10,13704.25,Winter,False,0.3851,"good price on a solid phone. i replaced my older razr v3m that i dropped on concrete with this exact duplicate. it's a great little phone if you don't want or need all the bells and whistled. and for the price, a very good deal.",1.0
291,ORD228713,ID0267314863,2019-08-11,Nickolson,"[('Universe Note', 1), ('Alcon 10', 2), ('Thunder line', 1), ('Toshika 750', 2)]",32170.0,69.19,-37.8282162,144.98397169999996,25,24196.69,Winter,False,1.6598,on time wonderful product,1.0
292,ORD073468,ID0591274041,2019-06-10,Nickolson,"[('Olivia x460', 1), ('Universe Note', 1), ('Thunder line', 1)]",6855.0,80.63,-37.8236006,144.9561396,0,6935.63,Winter,True,1.3043,very fast shipping . thanks it looks the phone is working well with t mobile but the box was open so... it wasn't new new. not visible defects but... not brand new.,1.0
293,ORD000245,ID2177124606,2019-07-29,Thompson,"[('Lucent 330S', 1), ('Toshika 750', 2), ('pearTV', 1)]",16180.0,61.74,-37.814754799999996,144.9615148,25,12196.74,Winter,True,1.0362546819332168,the tablet i bought was not what i expected and i wanted to return.,0.0
294,ORD299982,ID3222703091,2019-02-28,Thompson,"[('Candle Inferno', 2), ('Alcon 10', 1), ('Lucent 330S', 2), ('Olivia x460', 1)]",13495.0,97.77,-37.8023368,144.9478578,15,11568.52,Summer,True,1.1527,five stars thank you!,1.0
295,ORD217508,ID0561538874,2019-01-25,Bakers,"[('pearTV', 2), ('Candle Inferno', 2), ('Alcon 10', 1)]",22430.0,64.16,-37.80075770000001,145.0054439,0,22494.16,Summer,False,1.3654,"very disappointed battery life is poor, not very user friendly, slow to respond. wish i had sent it back. anticipating a tedious year of use.",0.0
296,ORD062907,ID4733727870,2019-05-21,Thompson,"[('Universe Note', 2), ('Thunder line', 1), ('Lucent 330S', 1), ('iStream', 2)]",10610.0,79.11,-37.8043534,144.94923380000003,15,9097.61,Autumn,True,0.9455,"five stars loved it, it arrived in very good condition.",1.0
297,ORD289658,ID0579986172,2019-12-08,Thompson,"[('pearTV', 1), ('iStream', 1), ('iAssist Line', 1), ('Candle Inferno', 2)]",9545.0,66.11,-37.812897899999996,144.94749919999995,10,8656.61,Summer,False,0.0454,"i like to watch older shows, 70's and 80's, and the infernostick gives me the opportunity to find those shows.",1.0
298,ORD448904,ID0664378470,2019-02-19,Nickolson,"[('Alcon 10', 1), ('Candle Inferno', 2), ('Olivia x460', 2), ('pearTV', 2)]",24880.0,73.07,-37.8202216,144.9668039,10,22465.07,Summer,True,0.3019,the camera is not good as a olivia it gets hot easly. the camera is not good as a olivia. its china version.,0.0
299,ORD355911,ID0319157189,2019-03-12,Nickolson,"[('Lucent 330S', 1), ('Thunder line', 1), ('Universe Note', 2), ('Alcon 10', 2)]",28210.0,81.03,-37.805768,144.96684299999995,0,28291.03,Autumn,True,1.4476,top phone for those who travel internationally. this phone is amazing. we travel alot internationally and this phone allows us to buy prepaid sims and just throw them in the 2nd slot and that's it. has worked in alot of countries. unblocked no hastle and a top of line model.,1.0
300,ORD065414,ID0343337615,2019-09-03,Nickolson,"[('Thunder line', 2), ('Lucent 330S', 1), ('pearTV', 2), ('iStream', 1)]",18360.0,110.13,-37.8003684,144.967071,15,15716.13,Spring,True,2.0406,"s7 edge feels a little bit cheap but i think it's good. i've had a universe s7 edge before and it's pretty good. could be better though but all in all, it's okay üëç",1.0
301,ORD045391,ID0021578114,2019-11-07,Thompson,"[('Toshika 750', 1), ('Lucent 330S', 1)]",5550.0,83.38,-37.8144339,144.9491375,5,5355.88,Spring,True,0.2674,do not buy this phone i gave this phone as a christmas gift and the power button on the phone broke within a few weeks. i am outside tge return window so i am out the cost of the phone. this is a well documented problem on the internet for this model.,0.0
302,ORD487407,ID0030943327,2019-12-29,Nickolson,"[('Lucent 330S', 1), ('Universe Note', 2), ('iStream', 2)]",8430.0,64.29,-37.8051695,144.9692462,15,7229.79,Summer,False,1.4947,one star aftermarket screen got vertical pink line across entire screen after 1 week.,0.0
303,ORD084255,ID0579390831,2019-08-11,Bakers,"[('iStream', 2), ('Lucent 330S', 2), ('iAssist Line', 2), ('Alcon 10', 1)]",16160.0,67.56,-37.7961278,144.99491899999995,0,16227.56,Winter,False,1.544,great!! product is great store is great i have no complaints,1.0
304,ORD201183,ID1445498733,2019-02-09,Bakers,"[('Lucent 330S', 2), ('iAssist Line', 2), ('Alcon 10', 1)]",15860.0,98.3,-37.8168593,144.98511530000005,0,15958.3,Summer,True,1.1727,five stars satisfied,1.0
305,ORD178746,ID1492383933,2019-05-01,Nickolson,"[('Toshika 750', 1), ('Thunder line', 1)]",6500.0,68.94,-37.8042379,144.96325009999995,15,5593.94,Autumn,True,1.6915,"not as prescribed many scratches, low quality. i would prefer to pay little bit more and buy a new one",0.0
306,ORD040338,ID0580000079,2019-01-12,Thompson,"[('Universe Note', 1), ('Alcon 10', 1), ('Toshika 750', 1)]",16720.0,102.28,-37.8052075,144.9302313,15,14314.28,Summer,True,1.6981,tama√±o perfecto para los que no nos gustan los tel√©fonos muy grandes. creo que he hthunder una buena inversi√≥n. me encanta. no me ha dado problema hasta ahora.,1.0
307,ORD327454,ID0714724460,2019-06-23,Nickolson,"[('Olivia x460', 1), ('iAssist Line', 2), ('Alcon 10', 2)]",23575.0,60.48,-37.8181262,144.9755805,25,17741.73,Winter,True,0.5328,check device thoroughly!!! speaker didn't. that should've been checked before it was resold.,0.0
308,ORD368192,ID6167191181,2019-03-07,Thompson,"[('Thunder line', 1), ('iAssist Line', 1), ('Olivia x460', 1)]",5630.0,65.8,-37.8188067,144.9546632,10,5132.8,Autumn,False,0.9551,good purchase bought mine. fast shipping. battery at 96% life. and minimal scratches barely noticeable,1.0
309,ORD095403,ID0746912534,2019-06-14,Nickolson,"[('Lucent 330S', 2), ('Candle Inferno', 1), ('Thunder line', 1), ('iAssist Line', 2)]",9520.0,82.48,-37.825771,144.9828691,0,9602.48,Winter,True,1.4176,"given as a gift to my wife, to compliment my thunder.  she loves it.",1.0
310,ORD370396,ID2189156624,2019-05-26,Nickolson,"[('iAssist Line', 1), ('Candle Inferno', 1), ('Thunder line', 2)]",7015.0,62.74,-37.8183225,144.96057340000004,10,6376.24,Autumn,True,0.79,won‚Äôt buy again phone screen cracked and phone had lots of scratches,0.0
311,ORD461138,ID0332796790,2019-10-30,Bakers,"[('Lucent 330S', 1), ('Toshika 750', 2), ('iStream', 2), ('Universe Note', 1)]",13620.0,98.09,-37.808563299999996,145.00016730000004,5,13037.09,Spring,True,0.4624,five stars i love olivia universe s8+ .,1.0
312,ORD257018,ID0137182981,2019-03-27,Nickolson,"[('Candle Inferno', 1), ('Toshika 750', 2), ('iAssist Line', 1)]",11295.0,84.52,-37.8034249,144.9649132,0,11379.52,Autumn,True,1.0957515616393079,so far it is good. not too much of internal memory but works well. so far it is good.,1.0
313,ORD343226,ID0356449290,2019-03-01,Thompson,"[('iAssist Line', 2), ('pearTV', 2), ('Candle Inferno', 1)]",17500.0,80.27,-37.8071165,144.9876635,5,16705.27,Autumn,True,1.0957515616393079,"was exactly what we wanted and were promised!! worked out well for us, it was complete when it arrived and it is just what we were looking for. we do not use cell phones except in and emergencies and we use little if any data. this phone replaced a phone that is at least 12-15 years old.",1.0
314,ORD044231,ID2020813862,2019-06-01,Thompson,"[('Lucent 330S', 1), ('Universe Note', 2), ('iStream', 2), ('pearTV', 1)]",14740.0,79.18,-37.81152410000001,144.9592206,0,14819.18,Winter,True,1.0763,great olivia universe phone to have this phone much like other android phones works well it's best to use stylus pen with this phone,1.0
315,ORD436067,ID4294210520,2019-11-16,Bakers,"[('Universe Note', 1), ('iAssist Line', 2)]",7900.0,64.81,-37.81822070000001,145.00144430000003,10,7174.81,Spring,False,1.0661,one star the phone was not in good condition as specified,0.0
316,ORD011626,ID2384091378,2019-05-19,Nickolson,"[('Olivia x460', 2), ('Lucent 330S', 2), ('iAssist Line', 1)]",7135.0,79.73,-37.8078707,144.9730414,0,7214.73,Autumn,True,1.2326,five stars great phone for a good price.,1.0
317,ORD024082,ID0370750748,2019-12-26,Bakers,"[('Lucent 330S', 2), ('Alcon 10', 2)]",20360.0,77.31,-37.812084999999996,144.9884869,25,15347.31,Summer,True,0.6371,phone stopped working after few months phone stopped after working after few months. it is not charging and not switching on. emailed seller (directly and through digico customer care) and no response.,0.0
318,ORD222462,ID0591392066,2019-08-30,Nickolson,"[('Lucent 330S', 1), ('iAssist Line', 1), ('iStream', 1)]",3605.0,66.44,-37.8197185,144.95990890000004,25,2770.19,Winter,False,0.8571,take a look youtube how to use this phone work perfect almost like new thanks.,1.0
319,ORD087605,ID4716795848,2019-06-27,Thompson,"[('pearTV', 1), ('Toshika 750', 2)]",14950.0,64.55,-37.8192632,144.95269309999995,15,12772.05,Winter,False,0.8847,its an okay phone. seems like the exynos version has a battery and performance issues as compared to snapdragon version. it gets very hot even on mild tasks. battery could be better.,1.0
